[
{"id": "260060737", "lat": "25.1673494", "lon": "55.2363652", "amenity": "fuel", "brand": "Emarat", "name": "\u0627\u0645\u0627\u0631\u0627\u062a", "name:ar": "\u0627\u0645\u0627\u0631\u0627\u062a", "name:de": "Emarat", "name:en": "Emarat", "operator": "Emarat"}
, {"id": "260061366", "lat": "25.1874558", "lon": "55.2574324", "amenity": "fuel", "brand": "EPPCO", "name": "\u0627\u064a\u0628\u0643\u0648", "name:ar": "\u0627\u064a\u0628\u0643\u0648", "name:de": "EPPCO", "name:en": "EPPCO", "operator": "EPPCO"}
, {"id": "263117031", "lat": "25.1181992", "lon": "55.2079616", "amenity": "fuel", "brand": "ENOC", "fuel:diesel": "yes", "fuel:octane_95": "yes", "fuel:octane_98": "yes", "name": "\u0627\u064a\u0646\u0648\u0643", "name:ar": "\u0627\u064a\u0646\u0648\u0643", "name:en": "ENOC", "opening_hours": "24/7", "operator": "ENOC"}
, {"id": "264560749", "lat": "25.175719", "lon": "55.5418596", "amenity": "fuel", "brand": "Emarat", "name": "\u0627\u0645\u0627\u0631\u0627\u062a", "name:ar": "\u0627\u0645\u0627\u0631\u0627\u062a", "name:de": "Emarat", "name:en": "Emarat", "operator": "Emarat"}
, {"id": "266488791", "lat": "25.3088637", "lon": "55.3689992", "amenity": "hospital", "name": "Al Taawun Mall", "name:en": "Al Taawun Mall"}
, {"id": "267251478", "lat": "25.1532112", "lon": "55.2152114", "addr:street": "Al Wasl Road", "amenity": "fuel", "brand": "Emarat", "name": "\u0627\u0645\u0627\u0631\u0627\u062a", "name:ar": "\u0627\u0645\u0627\u0631\u0627\u062a", "name:de": "Emarat", "name:en": "Emarat", "operator": "Emarat", "source": "Kaart Ground Survey 2017"}
, {"id": "282714668", "lat": "25.1831528", "lon": "55.2269213", "addr:street": "Jumeirah Street", "amenity": "fuel", "brand": "EPPCO", "name": "\u0627\u064a\u0628\u0643\u0648", "name:ar": "\u0627\u064a\u0628\u0643\u0648", "name:en": "EPPCO", "operator": "EPPCO", "source": "Kaart Ground Survey 2017"}
, {"id": "315524193", "lat": "25.2649877", "lon": "55.2952368", "amenity": "ferry_terminal", "name": "Dubai Old Souk - Abra dock", "name:en": "Dubai Old Souk - Abra dock", "name:zh": "\u8001\u6e21\u53e3"}
, {"id": "315524198", "lat": "25.2672461", "lon": "55.3031502", "amenity": "ferry_terminal", "name": "Al Sabkha Abra terminal (North)", "name:en": "Al Sabkha Abra terminal (North)"}
, {"id": "316045222", "lat": "25.2167769", "lon": "55.2827607", "amenity": "restaurant", "name": "Al Nafoorah", "name:en": "Al Nafoorah", "opening_hours": "12:00-15:30; 19:00-23:30", "website": "https://www.jumeirah.com/en/hotels-resorts/dubai/jumeirah-emirates-towers/restaurants_bars/al-nafoorah/"}
, {"id": "384661251", "lat": "25.2321744", "lon": "55.3114304", "amenity": "fuel", "brand": "EPPCO", "name": "\u0627\u064a\u0628\u0643\u0648", "name:ar": "\u0627\u064a\u0628\u0643\u0648", "name:en": "EPPCO", "operator": "EPPCO"}
, {"id": "384770032", "lat": "25.238644", "lon": "55.3122511", "amenity": "nightclub", "name": "Chi", "name:en": "Chi"}
, {"id": "471477384", "lat": "25.2563093", "lon": "55.3332016", "amenity": "parking", "name": "RTA Public Parking", "name:en": "RTA Public Parking"}
, {"id": "471477387", "lat": "25.2560919", "lon": "55.3344805", "amenity": "parking", "name": "RTA Public Parking", "name:en": "RTA Public Parking"}
, {"id": "471477389", "lat": "25.255696", "lon": "55.3340427", "amenity": "parking", "name": "RTA Public Parking", "name:en": "RTA Public Parking"}
, {"id": "574351620", "lat": "25.2551872", "lon": "55.3029151", "addr:street": "Khalid Bin Waleed Road", "amenity": "atm", "name": "Union National Bank", "name:en": "Union National Bank", "operator": "National Bank of Dubai", "source": "Kaart Ground Survey 2017"}
, {"id": "574351639", "lat": "25.2713696", "lon": "55.3044273", "amenity": "restaurant", "cuisine": "afghan", "name": "Afghan Kebab House", "name:en": "Afghan Kebab House"}
, {"id": "574351643", "lat": "25.2740932", "lon": "55.3214883", "amenity": "restaurant", "cuisine": "Iraq", "name": "Bayt Al Baghdadi", "name:en": "Bayt Al Baghdadi"}
, {"id": "622542589", "lat": "25.0347754", "lon": "55.1182132", "amenity": "bar", "name": "Jebel Ali Club", "name:en": "Jebel Ali Club"}
, {"id": "623801541", "lat": "25.2663451", "lon": "55.2936079", "amenity": "library", "name": "Al Ras Public Library", "name:en": "Al Ras Public Library"}
, {"id": "626423070", "lat": "25.0292611", "lon": "55.1147026", "amenity": "hospital", "emergency": "yes", "name": "Lifeline Hospital", "name:en": "Lifeline Hospital"}
, {"id": "626429819", "lat": "25.0297763", "lon": "55.1139623", "amenity": "school", "name": "Jebel Ali Primary School", "name:en": "Jebel Ali Primary School"}
, {"id": "627269385", "lat": "25.0472779", "lon": "55.1235532", "amenity": "cinema", "name": "Grand Megaplex Cinema & IMAX", "name:en": "Grand Megaplex Cinema & IMAX"}
, {"id": "627273763", "lat": "25.0480152", "lon": "55.1218741", "amenity": "taxi", "name": "China Court - Ibn Battuta Mall", "name:en": "China Court - Ibn Battuta Mall"}
, {"id": "627273807", "lat": "25.0418681", "lon": "55.1167113", "amenity": "taxi", "name": "Tunisia - Ibn Battuta Mall", "name:en": "Tunisia - Ibn Battuta Mall"}
, {"id": "628583223", "lat": "25.0398404", "lon": "55.1152792", "amenity": "fuel", "brand": "ENOC", "name": "\u0627\u064a\u0646\u0648\u0643", "name:ar": "\u0627\u064a\u0646\u0648\u0643", "name:en": "ENOC", "operator": "ENOC"}
, {"id": "641812240", "lat": "25.227978", "lon": "55.3834742", "amenity": "restaurant", "cuisine": "pizza", "name": "Pizza Hut", "name:en": "Pizza Hut"}
, {"id": "645060417", "lat": "25.3065794", "lon": "55.3788326", "amenity": "telephone", "name": "Etisalat Nahda Customer Service Centre", "name:en": "Etisalat Nahda Customer Service Centre", "operator": "Etisalat Nadha Exchange"}
, {"id": "645067445", "lat": "25.3054615", "lon": "55.3745335", "amenity": "restaurant", "name": "Chicken Tikka", "name:en": "Chicken Tikka", "source": "Kaart Ground Survey 2017"}
, {"id": "648119006", "lat": "25.3034979", "lon": "55.3791258", "addr:street": "25 Street", "amenity": "restaurant", "name": "Qantarah Restaurant", "name:en": "Qantarah Restaurant", "source": "Kaart Ground Survey 2017"}
, {"id": "648119007", "lat": "25.3003608", "lon": "55.3696684", "amenity": "restaurant", "name": "King's Biryani", "name:en": "King's Biryani"}
, {"id": "648119008", "lat": "25.3051232", "lon": "55.3775434", "amenity": "restaurant", "name": "Food Corner", "name:en": "Food Corner"}
, {"id": "648119010", "lat": "25.3085793", "lon": "55.3774796", "amenity": "restaurant", "name": "Jabal Lebnan", "name:en": "Jabal Lebnan", "source": "Kaart Ground Survey 2017"}
, {"id": "713283420", "lat": "25.0843496", "lon": "55.1481164", "amenity": "cafe", "name": "Cafe Bateel", "name:en": "Cafe Bateel"}
, {"id": "715433702", "lat": "25.084448", "lon": "55.144784", "amenity": "cafe", "name": "Cityport Cafe", "name:en": "Cityport Cafe"}
, {"id": "718465838", "lat": "25.0860019", "lon": "55.1483625", "amenity": "parking", "name": "Spinneys Park", "name:en": "Spinneys Park", "parking": "underground"}
, {"id": "838296573", "lat": "24.9411287", "lon": "55.0421517", "amenity": "fuel", "brand": "Emarat", "fuel:diesel": "yes", "fuel:octane_95": "yes", "fuel:octane_98": "yes", "name": "\u0627\u0645\u0627\u0631\u0627\u062a", "name:ar": "\u0627\u0645\u0627\u0631\u0627\u062a", "name:de": "Emarat", "name:en": "Emarat", "opening_hours": "24/7", "operator": "Emarat", "shop": "convenience"}
, {"id": "838296574", "lat": "24.9409505", "lon": "55.0418996", "amenity": "fast_food", "contact:email": "crm@mcdonalds-uae.com", "contact:phone": "+971 600 588885", "contact:website": "https://www.mcdelivery.ae/", "cuisine": "american;burger", "level": "0", "name": "McDonald's", "name:ar": "\u0645\u0627\u0643\u062f\u0648\u0646\u0627\u0644\u062f\u0632", "name:en": "McDonald's", "opening_hours": "24/7", "operator": "EMIRATES FAST FOOD CO.", "takeaway": "yes"}
, {"id": "838297997", "lat": "25.194741", "lon": "55.2760063", "amenity": "restaurant", "cuisine": "french", "name": "Margaux", "name:en": "Margaux"}
, {"id": "838297999", "lat": "25.1944225", "lon": "55.2761711", "amenity": "restaurant", "cuisine": "steak_house", "name": "The Meat Co.", "name:en": "The Meat Co."}
, {"id": "939519637", "lat": "25.2195711", "lon": "55.3139049", "addr:street": "Oud Metha Road", "amenity": "fuel", "brand": "ENOC", "name": "\u0627\u064a\u0646\u0648\u0643", "name:ar": "\u0627\u064a\u0646\u0648\u0643", "name:en": "ENOC", "operator": "ENOC", "source": "Kaart Ground Survey 2017"}
, {"id": "973423540", "lat": "25.1384761", "lon": "55.1886332", "amenity": "parking_entrance", "name": "Wild Wadi Waterpark", "name:en": "Wild Wadi Waterpark", "parking": "multi-storey", "wheelchair": "yes"}
, {"id": "988933702", "lat": "25.0612454", "lon": "55.1305055", "amenity": "car_wash", "brand": "Shell", "name": "Hi Way Auto Service", "opening_hours": "Sa-Su 07:30-21:00", "wheelchair": "no"}
, {"id": "988933752", "lat": "25.1735576", "lon": "55.4359269", "addr:street": "Al Awir Road", "amenity": "fuel", "brand": "ENOC", "name": "\u0627\u064a\u0646\u0648\u0643", "name:ar": "\u0627\u064a\u0646\u0648\u0643", "name:en": "ENOC", "operator": "ENOC"}
, {"id": "988933798", "lat": "25.1670972", "lon": "55.2362656", "amenity": "fast_food", "brand": "Burger King", "brand:wikidata": "Q177054", "brand:wikipedia": "en:Burger King", "cuisine": "burger", "name": "Burger King", "name:en": "Burger King", "takeaway": "yes"}
, {"id": "1002493894", "lat": "25.2569279", "lon": "55.2992099", "amenity": "restaurant", "name": "Golden Sands", "name:en": "Golden Sands"}
, {"id": "1002495444", "lat": "25.2568619", "lon": "55.2989976", "amenity": "restaurant", "name": "Kumarakam", "name:en": "Kumarakam"}
, {"id": "1062217084", "lat": "25.1347168", "lon": "55.2358737", "amenity": "fast_food", "cuisine": "arab", "name": "\u0645\u0637\u0628\u062e \u0627\u0644\u0647\u0646\u0648\u0641 \u0627\u0644\u0634\u0639\u0628\u064a", "name:ar": "\u0645\u0637\u0628\u062e \u0627\u0644\u0647\u0646\u0648\u0641 \u0627\u0644\u0634\u0639\u0628\u064a", "name:en": "Al Hunoof Public Kitchen"}
, {"id": "1080422643", "lat": "25.234788", "lon": "55.358133", "addr:city": "Dubai", "addr:street": "Marrakech street", "amenity": "school", "name": "Al Mawakeb School", "name:ar": "\u0645\u062f\u0631\u0633\u0629 \u0627\u0644\u0645\u0648\u0627\u0643\u0628", "name:en": "Al Mawakeb School"}
, {"id": "1108918873", "lat": "25.2390016", "lon": "55.3026069", "amenity": "hospital", "name": "\u062a\u0645\u062a \u0627\u0632\u0627\u0644\u062a\u0647", "name:ar": "\u062a\u0645\u062a \u0627\u0632\u0627\u0644\u062a\u0647"}
, {"id": "1114639638", "lat": "25.2368611", "lon": "55.3089433", "amenity": "restaurant", "name": "Adukkala restaurant", "name:en": "Adukkala restaurant"}
, {"id": "1138821929", "lat": "25.2647124", "lon": "55.3602265", "amenity": "taxi", "name": "Airport Taxi Stand, Dubai Airport Terminal 02", "name:en": "Airport Taxi Stand, Dubai Airport Terminal 02"}
, {"id": "1154362478", "lat": "25.1944312", "lon": "55.2805151", "access": "yes", "amenity": "parking_entrance", "covered": "yes", "fee": "no", "lit": "yes", "name": "Cinema Parking Dubai Mall", "name:en": "Cinema Parking Dubai Mall", "parking": "multi-storey", "supervised": "yes", "surface": "asphalt"}
, {"id": "1154362479", "lat": "25.1949325", "lon": "55.2797415", "access": "yes", "amenity": "parking_entrance", "covered": "yes", "fee": "no", "lit": "yes", "name": "Cinema Parking Dubai Mall", "name:en": "Cinema Parking Dubai Mall", "parking": "multi-storey", "supervised": "yes", "surface": "asphalt"}
, {"id": "1157625269", "lat": "25.1007127", "lon": "55.1552992", "amenity": "parking", "fee": "yes", "name": "Gateway Towers", "name:en": "Gateway Towers", "parking": "multi-storey"}
, {"id": "1161036690", "lat": "25.0804829", "lon": "55.1372264", "amenity": "pharmacy", "name": "Pharmacy", "name:en": "Pharmacy", "toilets:wheelchair": "no", "wheelchair": "yes"}
, {"id": "1175480463", "lat": "25.2251209", "lon": "55.3233574", "amenity": "fast_food", "cuisine": "sandwich", "name": "Subway", "name:en": "Subway", "source": "Bing"}
, {"id": "1175480489", "lat": "25.2193292", "lon": "55.3139383", "addr:street": "Oud Metha Road", "amenity": "fast_food", "brand": "Burger King", "brand:wikidata": "Q177054", "brand:wikipedia": "en:Burger King", "cuisine": "burger", "name": "Burger King", "name:en": "Burger King", "source": "Bing", "takeaway": "yes"}
, {"id": "1175480496", "lat": "25.2193689", "lon": "55.3136451", "amenity": "fast_food", "cuisine": "sandwich", "name": "Subway", "name:en": "Subway", "source": "Bing"}
, {"id": "1185817638", "lat": "25.2436287", "lon": "55.3613517", "amenity": "parking", "name": "Terminal 03 Parking", "name:en": "Terminal 03 Parking"}
, {"id": "1187438455", "lat": "25.2543001", "lon": "55.3059148", "amenity": "bank", "name": "Dubai Islamic Bank", "name:en": "Dubai Islamic Bank", "source": "Kaart Ground Survey 2017"}
, {"id": "1187528947", "lat": "25.2645929", "lon": "55.2913676", "amenity": "bank", "name": "HSBC", "name:en": "HSBC"}
, {"id": "1187546835", "lat": "25.1760687", "lon": "55.2546108", "amenity": "fuel", "brand": "Emarat", "name": "\u0627\u0645\u0627\u0631\u0627\u062a", "name:ar": "\u0627\u0645\u0627\u0631\u0627\u062a", "name:de": "Emarat", "name:en": "Emarat", "operator": "Emarat"}
, {"id": "1187645076", "lat": "25.1245766", "lon": "55.2062692", "amenity": "police", "name": "Al Barsha Traffic Police Office", "name:en": "Al Barsha Traffic Police Office"}
, {"id": "1187652402", "lat": "25.1820685", "lon": "55.2356582", "amenity": "hospital", "name": "Samaa Medical Centre", "name:en": "Samaa Medical Centre"}
, {"id": "1187656221", "lat": "25.1013394", "lon": "55.1608675", "amenity": "hospital", "name": "Welcare Hospital", "name:en": "Welcare Hospital"}
, {"id": "1187677800", "lat": "25.2710109", "lon": "55.3077882", "amenity": "car_rental", "name": "Sixt Car Rental", "name:en": "Sixt Car Rental"}
, {"id": "1195727966", "lat": "25.2664281", "lon": "55.3115031", "amenity": "post_office", "name": "Thanawiya Post Office", "name:en": "Thanawiya Post Office", "operator": "Emirates Post"}
, {"id": "1198273499", "lat": "25.2703474", "lon": "55.3145494", "addr:city": "\u062f\u0628\u064a", "addr:street": "\u0634\u0627\u0631\u0639 \u0645\u0633\u062a\u0634\u0641\u0649 \u0627\u0644\u0645\u0643\u062a\u0648\u0645", "amenity": "hospital", "name": "\u0645\u0633\u062a\u0634\u0641\u0649 \u0627\u0644\u0645\u0643\u062a\u0648\u0645", "name:ar": "\u0645\u0633\u062a\u0634\u0641\u0649 \u0627\u0644\u0645\u0643\u062a\u0648\u0645", "name:en": "Al Maktoum Hospital"}
, {"id": "1198289222", "lat": "25.2488932", "lon": "55.2833531", "amenity": "hospital", "name": "International Modern Hospital", "name:en": "International Modern Hospital"}
, {"id": "1207189556", "lat": "25.1133485", "lon": "55.1426955", "amenity": "cafe", "name": "Costa Coffee", "name:en": "Costa Coffee"}
, {"id": "1208606979", "lat": "25.0855058", "lon": "55.1393107", "amenity": "restaurant", "cuisine": "arab", "name": "Al Khayma", "name:en": "Al Khayma", "operator": "Hotel Le Royal M\u00e9ridien Beach Resort & Spa"}
, {"id": "1211883066", "lat": "25.0904335", "lon": "55.1528458", "addr:city": "Dubai Media City, Dubai", "amenity": "restaurant", "brand": "Vapiano", "cuisine": "italian", "name": "Vapiano", "name:en": "Vapiano", "payment:credit_cards": "yes", "toilets": "yes"}
, {"id": "1211889029", "lat": "25.0918929", "lon": "55.1707072", "amenity": "cafe", "cuisine": "ice_cream", "internet_access:fee": "no", "name": "Caribou", "name:en": "Caribou", "takeaway": "yes"}
, {"id": "1223601608", "lat": "25.1957657", "lon": "55.2819005", "amenity": "parking_entrance", "covered": "yes", "fee": "no", "lit": "yes", "name": "Cinema Parking Dubai Mall P5-P10", "name:en": "Cinema Parking Dubai Mall P5-P10", "parking": "multi-storey", "supervised": "yes", "surface": "asphalt"}
, {"id": "1243173352", "lat": "25.0260882", "lon": "55.1146827", "amenity": "place_of_worship", "denomination": "evangelical", "name": "Dubai Evangelical Church Centre", "name:en": "Dubai Evangelical Church Centre", "religion": "christian", "source": "http://www.deccc.com"}
, {"id": "1259500042", "lat": "25.2570726", "lon": "55.3126785", "amenity": "ferry_terminal", "name": "Meeras Al Seef", "name:en": "MeerasAl Seef"}
, {"id": "1267692077", "lat": "25.2934319", "lon": "55.3793485", "amenity": "restaurant", "cuisine": "regional", "name": "Park View", "name:en": "Park View", "source": "Kaart Ground Survey 2017"}
, {"id": "1267692373", "lat": "25.2943786", "lon": "55.3784003", "amenity": "pharmacy", "dispensing": "no", "name": "Nahda Sahara Pharmacy", "name:en": "Nahda Sahara Pharmacy", "source": "Kaart Ground Survey 2017"}
, {"id": "1267692426", "lat": "25.2953278", "lon": "55.3791634", "amenity": "restaurant", "cuisine": "regional", "name": "Palm Valley", "name:en": "Palm Valley"}
, {"id": "1267692821", "lat": "25.2978225", "lon": "55.3812172", "amenity": "restaurant", "cuisine": "indian", "name": "Dosa Plaza", "name:en": "Dosa Plaza"}
, {"id": "1267692874", "lat": "25.2978251", "lon": "55.3814814", "amenity": "restaurant", "cuisine": "indian", "name": "Bombay Chowpaty", "name:en": "Bombay Chowpaty"}
, {"id": "1267692942", "lat": "25.2978084", "lon": "55.3816808", "amenity": "restaurant", "cuisine": "indian", "name": "Anjappar", "name:en": "Anjappar"}
, {"id": "1267693007", "lat": "25.2977899", "lon": "55.382079", "amenity": "restaurant", "cuisine": "chinese", "name": "Chow King", "name:en": "Chow King"}
, {"id": "1267693287", "lat": "25.2977709", "lon": "55.382586", "amenity": "pharmacy", "dispensing": "no", "name": "Life Pharmacy", "name:en": "Life Pharmacy"}
, {"id": "1267693346", "lat": "25.2977134", "lon": "55.382883", "amenity": "restaurant", "cuisine": "regional", "name": "Ahl Almandi", "name:en": "Ahl Almandi", "phone": "042574448"}
, {"id": "1267693375", "lat": "25.2977079", "lon": "55.3830819", "amenity": "restaurant", "cuisine": "indian", "name": "Panoor", "name:en": "Panoor"}
, {"id": "1267693492", "lat": "25.2976454", "lon": "55.3833433", "amenity": "pharmacy", "dispensing": "no", "name": "Ardh Al Naseem Pharmacy", "name:en": "Ardh Al Naseem Pharmacy"}
, {"id": "1276136208", "lat": "25.3204143", "lon": "55.3874358", "addr:street": "Al Wahda Street", "amenity": "bureau_de_change", "name": "Al Ansari Exchange", "name:en": "Al Ansari Exchange", "source": "Kaart Ground Survey 2017"}
, {"id": "1276136254", "lat": "25.3203632", "lon": "55.3873725", "addr:street": "Al Wahda Street", "amenity": "ice_cream", "brand": "Baskin-Robbins", "brand:wikidata": "Q584601", "brand:wikipedia": "en:Baskin-Robbins", "cuisine": "ice_cream", "name": "Baskin-Robbins", "name:en": "Baskin Robbins", "source": "Kaart Ground Survey 2017"}
, {"id": "1276136274", "lat": "25.319562", "lon": "55.387403", "amenity": "restaurant", "name": "The Grand Buffet", "name:en": "The Grand Buffet", "source": "Kaart Ground Survey 2017"}
, {"id": "1285758027", "lat": "25.1910881", "lon": "55.2776242", "amenity": "restaurant", "cuisine": "international", "name": "Nezesaussie", "name:en": "Nezesaussie"}
, {"id": "1309266236", "lat": "25.280883", "lon": "55.386875", "addr:city": "Dubai", "addr:housenumber": "042205858", "addr:street": "Damascus street", "amenity": "restaurant", "name": "Kumarakom Restaurant", "name:en": "Kumarakom Restaurant", "phone": "042205828", "website": "www.kumarakomdubai.com"}
, {"id": "1313142219", "lat": "25.2555288", "lon": "55.4208345", "addr:street": "Tunis Street", "amenity": "fuel", "brand": "Emarat", "name": "\u0627\u0645\u0627\u0631\u0627\u062a", "name:ar": "\u0627\u0645\u0627\u0631\u0627\u062a", "name:de": "Emarat", "name:en": "Emarat", "operator": "Emarat", "source": "Kaart Ground Survey 2017"}
, {"id": "1329326419", "lat": "25.2942259", "lon": "55.3708791", "amenity": "fuel", "brand": "ENOC", "name": "\u0627\u064a\u0646\u0648\u0643", "name:ar": "\u0627\u064a\u0646\u0648\u0643", "name:en": "ENOC", "operator": "ENOC"}
, {"id": "1329326420", "lat": "25.3021697", "lon": "55.383582", "amenity": "fuel", "brand": "EPPCO", "name": "\u0627\u064a\u0628\u0643\u0648", "name:ar": "\u0627\u064a\u0628\u0643\u0648", "name:en": "EPPCO", "operator": "EPPCO"}
, {"id": "1330394789", "lat": "25.0966936", "lon": "55.1651324", "amenity": "fast_food", "brand": "Burger King", "brand:wikidata": "Q177054", "brand:wikipedia": "en:Burger King", "cuisine": "burger", "name": "Burger King", "name:en": "Burger King", "takeaway": "yes"}
, {"id": "1330397675", "lat": "25.2142378", "lon": "55.2762895", "addr:city": "Dubai", "addr:street": "Sheikh Zayed Road", "amenity": "restaurant", "brand": "Nando's", "brand:wikidata": "Q3472954", "brand:wikipedia": "en:Nando's", "cuisine": "chicken;portuguese", "delivery": "yes", "drive_through": "no", "internet_access": "no", "name": "Nando's", "name:en": "Nando's", "note": "Spicy rotisserie chicken place, Brazilian food with Portuguese influence", "outdoor_seating": "sidewalk", "smoking": "no", "takeaway": "yes", "toilets:wheelchair": "no", "wheelchair": "no"}
, {"id": "1331040932", "lat": "25.2925536", "lon": "55.3854103", "amenity": "fuel", "brand": "ENOC", "name": "\u0627\u064a\u0646\u0648\u0643", "name:ar": "\u0627\u064a\u0646\u0648\u0643", "name:en": "ENOC", "operator": "ENOC"}
, {"id": "1354710123", "lat": "25.3012605", "lon": "55.3730205", "amenity": "hospital", "designation": "Sunny Medical Centre", "name": "Sunny Medical Centre", "name:en": "Sunny Medical Centre"}
, {"id": "1356208626", "lat": "25.3011342", "lon": "55.3727277", "amenity": "clinic", "designation": "Al Reem Diagonostic Centre", "name": "Al Reem Diagonostic Centre", "name:en": "Al Reem Diagonostic Centre"}
, {"id": "1357645966", "lat": "25.3020689", "lon": "55.3761039", "amenity": "restaurant", "name": "Sharjah Falcon Cafteria", "name:en": "Sharjah Falcon Cafteria"}
, {"id": "1357685699", "lat": "25.3003098", "lon": "55.3731125", "amenity": "pharmacy", "healthcare": "pharmacy", "name": "\u0635\u064a\u062f\u0644\u064a\u0629 \u0627\u0644\u0641\u0627\u0631\u0648\u0642", "name:ar": "\u0635\u064a\u062f\u0644\u064a\u0629 \u0627\u0644\u0641\u0627\u0631\u0648\u0642", "name:en": "Al Farooq Pharmacy", "opening_hours": "PH,Mo-Su 00:00-24:00"}
, {"id": "1357687464", "lat": "25.2998588", "lon": "55.3754513", "amenity": "restaurant", "name": "Hot Chillies", "name:en": "Hot Chillies"}
, {"id": "1357692409", "lat": "25.3014812", "lon": "55.3750932", "amenity": "hospital", "name": "Sahara Medical Centre", "name:en": "Sahara Medical Centre", "source": "Kaart Ground Survey 2017"}
, {"id": "1359146500", "lat": "25.3012086", "lon": "55.3730408", "addr:street": "Malaka Street", "amenity": "pharmacy", "name": "Aster", "name:en": "Aster", "source": "Kaart Ground Survey 2017"}
, {"id": "1360302447", "lat": "25.3019415", "lon": "55.3746076", "amenity": "restaurant", "name": "Hyderabadi", "name:en": "Hyderabadi"}
, {"id": "1360317491", "lat": "25.3001005", "lon": "55.3750207", "amenity": "cafe", "name": "Freedom Internet", "name:en": "Freedom Internet", "opening_hours": "Sa-Th 09:00-21:00"}
, {"id": "1361198228", "lat": "25.300681", "lon": "55.3729534", "amenity": "restaurant", "name": "Al Punjabi", "name:en": "Al Punjabi"}
, {"id": "1362374529", "lat": "25.039371", "lon": "55.1153008", "amenity": "fast_food", "cuisine": "hot_dog", "name": "Diggy Dogs", "name:en": "Diggy Dogs"}
, {"id": "1362374530", "lat": "25.0394648", "lon": "55.1153985", "amenity": "restaurant", "cuisine": "pizza", "name": "Pizza Hut", "name:en": "Pizza Hut"}
, {"id": "1362374534", "lat": "25.0394223", "lon": "55.1153477", "amenity": "fast_food", "name": "Subway", "name:en": "Subway"}
, {"id": "1368754888", "lat": "25.276603", "lon": "55.3460178", "amenity": "hospital", "emergency": "yes", "name": "New Medical Centre", "name:en": "New Medical Centre"}
, {"id": "1368755176", "lat": "25.2763781", "lon": "55.3457367", "amenity": "restaurant", "name": "Foodlands", "name:en": "Foodlands"}
, {"id": "1368766943", "lat": "25.2786487", "lon": "55.3446364", "addr:street": "Abu Hail Street", "amenity": "fast_food", "cuisine": "fried_chicken", "name": "\u062f\u062c\u0627\u062c \u0643\u0646\u062a\u0627\u0643\u064a", "name:ar": "\u062f\u062c\u0627\u062c \u0643\u0646\u062a\u0627\u0643\u064a", "name:en": "KFC", "name:ja": "\u30b1\u30f3\u30bf\u30c3\u30ad\u30fc", "source": "Kaart Ground Survey 2017", "takeaway": "yes"}
, {"id": "1368768137", "lat": "25.2787555", "lon": "55.3442556", "amenity": "fuel", "brand": "Emarat", "name": "\u0627\u0645\u0627\u0631\u0627\u062a", "name:ar": "\u0627\u0645\u0627\u0631\u0627\u062a", "name:de": "Emarat", "name:en": "Emarat", "operator": "Emarat"}
, {"id": "1373685585", "lat": "25.3006206", "lon": "55.3748757", "amenity": "restaurant", "name": "\u0645\u0647\u062f\u064a", "name:ar": "\u0645\u0647\u062f\u064a", "name:en": "Mahdi"}
, {"id": "1376425369", "lat": "25.3017482", "lon": "55.3645331", "amenity": "bank", "name": "National Bank of AbuDhabi", "name:en": "National Bank of AbuDhabi"}
, {"id": "1406990870", "lat": "25.133396", "lon": "55.1835749", "addr:city": "Dubai", "addr:housename": "Khaymat Al Bahar", "addr:street": "Al Qasr", "amenity": "restaurant", "email": "MJrestaurants@jumeirah.com", "internet_access": "wlan", "internet_access:fee": "no", "name": "Khaymat Al Bahar", "name:en": "Khaymat Al Bahar", "opening_hours": "Mo-Su 08:30-20:00", "operator": "Jumeirah International LLC", "phone": "+971 4 3666730", "smoking": "no", "website": "https://www.jumeirah.com/en/Hotels-and-Resorts/Destinations/Dubai/Madinat-Jumeirah/Restaurants--Nightlife/Casual-Dining/Khaymat-Al-Bahar/", "wheelchair": "yes"}
, {"id": "1412984502", "lat": "25.1939611", "lon": "55.2762257", "amenity": "restaurant", "cuisine": "steak", "name": "Asado", "name:en": "Asado"}
, {"id": "1412984505", "lat": "25.1950784", "lon": "55.2763253", "addr:city": "Dubai", "addr:housename": "Level 3, Souk al Bahar", "amenity": "restaurant", "cuisine": "british", "email": "reservations@rivingtongrill.ae", "name": "The Rivington Grill", "name:en": "The Rivington Grill", "phone": "+971 4 423 0903", "website": "http://www.rivingtongrill.ae/"}
, {"id": "1455841745", "lat": "25.090955", "lon": "55.153355", "addr:city": "Dubai Media City, Dubai", "amenity": "restaurant", "cuisine": "lebanese", "name": "Al Merkaaz", "name:en": "Al Merkaaz"}
, {"id": "1455841746", "lat": "25.0928834", "lon": "55.1517006", "addr:city": "Dubai Media City", "amenity": "restaurant", "cuisine": "sandwich", "name": "Circle", "name:en": "Circle"}
, {"id": "1455852554", "lat": "25.0938879", "lon": "55.1482766", "addr:city": "Dubai", "addr:housename": "The Westin", "amenity": "restaurant", "cuisine": "pizza", "name": "Bussola", "name:en": "Bussola"}
, {"id": "1458099997", "lat": "25.2339744", "lon": "55.318005", "amenity": "pharmacy", "name": "German Limbtech Orthopaedic", "name:en": "German Limbtech Orthopaedic", "wheelchair": "yes"}
, {"id": "1482147359", "lat": "25.091048", "lon": "55.153575", "amenity": "cafe", "name": "Costa", "name:en": "Costa"}
, {"id": "1490118496", "lat": "25.0921011", "lon": "55.1511885", "amenity": "cafe", "name": "Costa Coffee", "name:en": "Costa Coffee"}
, {"id": "1490118498", "lat": "25.0905275", "lon": "55.1530339", "amenity": "cafe", "name": "Panino", "name:en": "Panino"}
, {"id": "1500930498", "lat": "25.2820816", "lon": "55.346998", "amenity": "post_office", "name": "Deira Post Office", "name:en": "Deira Post Office"}
, {"id": "1502792363", "lat": "25.2833757", "lon": "55.3484865", "amenity": "hospital", "emergency": "no", "name": "Hor-Al-Anz Primary Health Centre", "name:en": "Hor-Al-Anz Primary Health Centre"}
, {"id": "1503619385", "lat": "25.2800426", "lon": "55.3443791", "amenity": "parking", "capacity": "6", "name": "PRo suraj", "name:en": "PRo suraj"}
, {"id": "1503826781", "lat": "25.2762875", "lon": "55.3445828", "amenity": "restaurant", "diet:vegetarian": "only", "name": "Madras Vegetarian Restaurant", "name:en": "Madras Vegetarian Restaurant"}
, {"id": "1503827950", "lat": "25.275948", "lon": "55.3446149", "amenity": "restaurant", "name": "Southern Spice Restaurant", "name:en": "Southern Spice Restaurant"}
, {"id": "1509507965", "lat": "25.2764609", "lon": "55.3370717", "amenity": "hospital", "emergency": "no", "name": "Aster Medical Centre", "name:en": "Aster Medical Centre"}
, {"id": "1509508158", "lat": "25.2764199", "lon": "55.3370065", "addr:street": "30b Street", "amenity": "pharmacy", "name": "Aster Pharmacy", "name:en": "Aster Pharmacy", "source": "Kaart Ground Survey 2017"}
, {"id": "1509577610", "lat": "25.2772468", "lon": "55.3386515", "amenity": "bureau_de_change", "name": "AL Razouki Money Exchange", "name:en": "AL Razouki Money Exchange"}
, {"id": "1509578887", "lat": "25.2772196", "lon": "55.3384777", "amenity": "bureau_de_change", "name": "UAE Exchange", "name:ar": "\u0645\u0631\u0643\u0632 \u0627\u0644\u0625\u0645\u0627\u0631\u0627\u062a \u0627\u0644\u0639\u0631\u0628\u064a\u0629 \u0627\u0644\u0645\u062a\u062d\u062f\u0629 \u0644\u0644\u0635\u0631\u0627\u0641\u0629", "name:en": "UAE Exchange"}
, {"id": "1513884392", "lat": "25.2799948", "lon": "55.3442284", "amenity": "car_rental", "name": "Engima Car Rental", "name:en": "Engima Car Rental"}
, {"id": "1513885883", "lat": "25.2800734", "lon": "55.3446592", "amenity": "car_rental", "name": "AL Sakka Car Rental", "name:en": "AL Sakka Car Rental"}
, {"id": "1514975987", "lat": "25.278919", "lon": "55.3452492", "amenity": "restaurant", "name": "Milen Restaurant", "name:en": "Milen Restaurant"}
, {"id": "1520931373", "lat": "25.2787434", "lon": "55.3454732", "amenity": "gym", "name": "AbuHail Gym", "name:en": "AbuHail Gym"}
, {"id": "1522666470", "lat": "25.2855816", "lon": "55.351474", "addr:street": "Al Wuheida Street", "amenity": "bank", "name": "Dubai Islamic Bank", "name:en": "Dubai Islamic Bank", "source": "Kaart Ground Survey 2017"}
, {"id": "1524501830", "lat": "25.2719751", "lon": "55.3725485", "amenity": "bank", "name": "Union National Bank", "name:en": "Union National Bank"}
, {"id": "1524503623", "lat": "25.2740661", "lon": "55.3664344", "amenity": "fuel", "brand": "ENOC", "name": "\u0627\u064a\u0646\u0648\u0643", "name:ar": "\u0627\u064a\u0646\u0648\u0643", "name:en": "ENOC", "operator": "ENOC"}
, {"id": "1532267867", "lat": "25.2403593", "lon": "55.3212708", "addr:city": "\u062f\u0628\u064a", "addr:city:ar": "\u062f\u0628\u064a", "amenity": "parking", "name": "50", "name:ar": "50"}
, {"id": "1532270489", "lat": "25.2441836", "lon": "55.318893", "amenity": "hospital", "emergency": "yes", "name": "Rashid Hospital", "name:en": "Rashid Hospital", "wikidata": "Q7294896"}
, {"id": "1532272198", "lat": "25.2402919", "lon": "55.3176086", "amenity": "place_of_worship", "building": "yes", "denomination": "catholic", "name": "St Marys Catholic Church", "name:en": "St Marys Catholic Church", "religion": "christian"}
, {"id": "1534984699", "lat": "25.297276", "lon": "55.3625275", "amenity": "bank", "atm": "yes", "name": "Emirates NBD", "name:en": "Emirates NBD"}
, {"id": "1536208082", "lat": "25.2782861", "lon": "55.3474273", "amenity": "restaurant", "name": "ChinaTown Restaurant", "name:en": "ChinaTown Restaurant", "source": "Kaart Ground Survey 2017"}
, {"id": "1536327001", "lat": "25.2780812", "lon": "55.347488", "addr:street": "1 Street", "amenity": "restaurant", "name": "Blue Mountain", "name:en": "Blue Mountain", "source": "Kaart Ground Survey 2017"}
, {"id": "1536329967", "lat": "25.2785833", "lon": "55.3476672", "amenity": "bureau_de_change", "name": "UAE Exchange", "name:ar": "\u0645\u0631\u0643\u0632 \u0627\u0644\u0625\u0645\u0627\u0631\u0627\u062a \u0627\u0644\u0639\u0631\u0628\u064a\u0629 \u0627\u0644\u0645\u062a\u062d\u062f\u0629 \u0644\u0644\u0635\u0631\u0627\u0641\u0629", "name:en": "UAE Exchange"}
, {"id": "1536341554", "lat": "25.2803451", "lon": "55.3450025", "amenity": "car_rental", "name": "Layers Rent a Car", "name:en": "Layers Rent a Car"}
, {"id": "1536344082", "lat": "25.2795077", "lon": "55.3436295", "amenity": "restaurant", "name": "Vembayan Restaturant", "name:en": "Vembayan Restaturant", "source": "Kaart Ground Survey 2017"}
, {"id": "1540387733", "lat": "25.2539449", "lon": "55.3306044", "amenity": "bank", "name": "Commercial Bank of Dubai", "name:en": "Commercial Bank of Dubai"}
, {"id": "1541940356", "lat": "25.1426787", "lon": "55.3618818", "amenity": "library", "name": "Repton Tower Plaza Hotel", "name:en": "Repton Tower Plaza Hotel"}
, {"id": "1582996072", "lat": "25.2995549", "lon": "55.3735869", "amenity": "restaurant", "diet:vegetarian": "only", "name": "Saravana Bhavan", "name:en": "Saravana Bhavan"}
, {"id": "1593296844", "lat": "25.2295686", "lon": "55.3914759", "amenity": "parking", "name": "Rashidiya Metro Station Car Park (Red Line)", "name:en": "Rashidiya Metro Station Car Park (Red Line)"}
, {"id": "1595413747", "lat": "25.2114196", "lon": "55.2715049", "addr:street": "Al Bada' St.", "amenity": "school", "name": "GEMS Wellington Primary School", "name:en": "GEMS Wellington Primary School"}
, {"id": "1601568996", "lat": "25.0937978", "lon": "55.1607788", "amenity": "restaurant", "name": "Nando's", "name:en": "Nando's"}
, {"id": "1604504261", "lat": "25.0896725", "lon": "55.1523138", "amenity": "bar", "name": "M:ZONE", "name:en": "M:ZONE"}
, {"id": "1612044241", "lat": "25.1270253", "lon": "55.3969284", "amenity": "cafe", "cuisine": "coffee_shop", "name": "Starbucks", "name:en": "Starbucks"}
, {"id": "1653966728", "lat": "25.0774753", "lon": "55.1341126", "amenity": "fast_food", "brand": "Five Guys", "brand:wikidata": "Q1131810", "brand:wikipedia": "en:Five Guys", "cuisine": "burger", "name": "Five Guys", "official_name": "Five Guys Burgers and Fries", "takeaway": "yes"}
, {"id": "1660118334", "lat": "25.0753554", "lon": "55.1321654", "addr:housename": "Sofitel Dubai Jumeirah Beach", "addr:postcode": "473828", "addr:street": "Dubai Marina", "amenity": "restaurant", "cuisine": "international", "designation": "French Brasserie", "name": "AOC French Brasserie", "name:en": "AOC French Brasserie", "website": "http://www.sofitel.com/gb/hotel-6146-sofitel-dubai-jumeirah-beach/restaurant.shtml", "wheelchair": "yes"}
, {"id": "1660186978", "lat": "25.075698", "lon": "55.1317604", "addr:housename": "Sofitel Dubai Jumeirah Beach", "addr:postcode": "473828", "addr:street": "Dubai Marina", "amenity": "bar", "designation": "poolside lounge", "internet_access": "wlan", "internet_access:fee": "no", "name": "Infini Pool Lounge", "name:en": "Infini Pool Lounge", "website": "http://www.sofitel.com/gb/hotel-6146-sofitel-dubai-jumeirah-beach/bar.shtml"}
, {"id": "1660188115", "lat": "25.0751052", "lon": "55.1322539", "addr:housename": "Sofitel Dubai Jumeirah Beach", "addr:postcode": "473828", "addr:street": "Dubai Marina", "amenity": "restaurant", "cuisine": "italian", "designation": "Fine Dining Italian", "name": "Rococo", "name:en": "Rococo", "website": "http://www.sofitel.com/gb/hotel-6146-sofitel-dubai-jumeirah-beach/restaurant.shtml"}
, {"id": "1660189746", "lat": "25.0751319", "lon": "55.1324014", "addr:housename": "Sofitel Dubai Jumeirah Beach", "addr:postcode": "473828", "addr:street": "Dubai Marina", "amenity": "pub", "designation": "Irish Bar", "internet_access": "wlan", "internet_access:fee": "no", "name": "The Hub", "name:en": "The Hub", "website": "http://www.sofitel.com/gb/hotel-6146-sofitel-dubai-jumeirah-beach/bar.shtml"}
, {"id": "1673474394", "lat": "25.2656892", "lon": "55.3325655", "amenity": "marketplace", "designation": "Future Star BMT LLC", "name": "Future Star BMT LLC", "name:en": "Future Star BMT LLC"}
, {"id": "1677147863", "lat": "25.1579161", "lon": "55.4111345", "amenity": "pharmacy", "name": "Easy Pharmacy", "name:en": "Easy Pharmacy"}
, {"id": "1719295857", "lat": "25.2962429", "lon": "55.397152", "amenity": "fast_food", "cuisine": "fried_chicken", "name": "\u062f\u062c\u0627\u062c \u0643\u0646\u062a\u0627\u0643\u064a", "name:ar": "\u062f\u062c\u0627\u062c \u0643\u0646\u062a\u0627\u0643\u064a", "name:en": "KFC", "name:ja": "\u30b1\u30f3\u30bf\u30c3\u30ad\u30fc", "takeaway": "yes"}
, {"id": "1719296068", "lat": "25.2964078", "lon": "55.3972164", "amenity": "fast_food", "cuisine": "pizza", "name": "Papa John's Pizza", "name:en": "Papa John's Pizza"}
, {"id": "1719296390", "lat": "25.2964951", "lon": "55.39727", "amenity": "fast_food", "cuisine": "sandwich", "name": "Subway Sandwich", "name:en": "Subway Sandwich"}
, {"id": "1719299176", "lat": "25.2907932", "lon": "55.399914", "amenity": "driving_school", "contact:email": "info@gmdc.ae", "contact:facebook": "https://facebook.com/galadaridriving", "contact:instagram": "https://instagram.com/galadari_motor_driving_centre", "contact:linkedin": "https://linkedin.com/company/galadari-motor-driving-centre", "contact:phone": "+971 4 267 6166;+971 4 338 4566", "contact:twitter": "https://twitter.com/@gmdc_gmdcuae", "contact:website": "https://www.gmdc.ae/", "name": "Galadari", "name:en": "Galadari Driving School", "opening_hours": "Mo-Su 08:00-17:00", "operator": "Galadari Motor Driving Centre"}
, {"id": "1719331620", "lat": "25.294433", "lon": "55.3707753", "amenity": "car_wash", "name": "ENOC Car Wash", "name:en": "ENOC Car Wash"}
, {"id": "1719335560", "lat": "25.2977408", "lon": "55.3699492", "amenity": "parking", "name": "Sahara Center Outdoor Parking", "name:en": "Sahara Center Outdoor Parking", "parking": "surface"}
, {"id": "1719336111", "lat": "25.2988174", "lon": "55.3713869", "access": "customers", "amenity": "parking", "fee": "yes", "name": "Sahara Center Outdoor Parking", "name:en": "Sahara Center Outdoor Parking", "parking": "surface"}
, {"id": "1720390113", "lat": "25.1931548", "lon": "55.4068159", "addr:street": "414 Street", "amenity": "pharmacy", "name": "ASTER Medical Centre, Al Warqa", "name:en": "ASTER Medical Centre, Al Warqa", "opening_hours": "Mo-Su 08:00-12:00", "phone": "+971 4 2800899", "source": "Kaart Ground Survey 2017", "website": "http://www.astermedicalcentre.com/clinicDetails.aspx?id=12"}
, {"id": "1727025567", "lat": "25.2400651", "lon": "55.2963324", "amenity": "hospital", "designation": "Multi-speciality Clinic", "emergency": "yes", "name": "Charly Poly Clinic", "name:en": "Charly Poly Clinic"}
, {"id": "1735094877", "lat": "25.0928088", "lon": "55.1698603", "amenity": "restaurant", "name": "Nando's", "name:en": "Nando's"}
, {"id": "1748858343", "lat": "25.1045328", "lon": "55.1662253", "amenity": "restaurant", "name": "Vista Rooftop Bar & Restaurant", "name:en": "Vista Rooftop Bar & Restaurant", "opening_hours": "Su-Sa 17:00-01:30"}
, {"id": "1768904532", "lat": "25.1560101", "lon": "55.2337751", "amenity": "fire_station", "name": "\u0627\u0644\u062f\u0641\u0627\u0639 \u0627\u0644\u0645\u062f\u0646\u064a \u0627\u0644\u0642\u0648\u0632"}
, {"id": "1797886088", "lat": "25.249373", "lon": "55.2887467", "amenity": "library", "name": "Al Mankhool Library"}
, {"id": "1805760458", "lat": "25.046184", "lon": "55.2427265", "amenity": "cafe", "internet_access": "wlan", "name": "Starbucks", "wheelchair": "limited"}
, {"id": "1805760651", "lat": "25.0465742", "lon": "55.2438921", "amenity": "cafe", "name": "Caribou Coffee", "name:en": "Caribou Coffee", "wheelchair": "limited"}
, {"id": "1815605308", "lat": "25.0269708", "lon": "55.2819498", "addr:street": "Road E", "amenity": "cafe", "name": "Food To Go", "name:en": "Food To Go"}
, {"id": "1866353517", "lat": "25.1871034", "lon": "55.2393484", "amenity": "fast_food", "cuisine": "american;burger", "name": "\u0645\u0627\u0643\u062f\u0648\u0646\u0627\u0644\u062f\u0632", "name:ar": "\u0645\u0627\u0643\u062f\u0648\u0646\u0627\u0644\u062f\u0632", "name:en": "McDonald's", "takeaway": "yes"}
, {"id": "1866353765", "lat": "25.1863418", "lon": "55.2388812", "amenity": "pharmacy", "name": "Boots Pharmacy", "name:en": "Boots Pharmacy"}
, {"id": "1866376882", "lat": "25.1685125", "lon": "55.2283693", "amenity": "pharmacy", "name": "Arabella Pharmacy", "name:en": "Arabella Pharmacy"}
, {"id": "1866391846", "lat": "25.1892835", "lon": "55.2407344", "addr:city": "Dubai", "addr:postcode": "P O BOX 3766", "addr:street": "Al Wasl Road", "amenity": "bank", "atm": "yes", "name": "HSBC Bank, Jumeirah Branch", "name:en": "HSBC Bank, Jumeirah Branch", "website": "https://www.hsbc.ae/"}
, {"id": "1866392892", "lat": "25.1853968", "lon": "55.2384736", "addr:street": "Al Wasl Road", "amenity": "fast_food", "name": "Eat & Drink", "name:en": "Eat & Drink", "source": "Kaart Ground Survey 2017"}
, {"id": "1866413092", "lat": "25.1612154", "lon": "55.2214658", "addr:street": "Al Wasl Road", "amenity": "veterinary", "name": "Modern Veterinary Clinic", "name:en": "Modern Veterinary Clinic", "source": "Kaart Ground Survey 2017"}
, {"id": "1866441144", "lat": "25.2597087", "lon": "55.3730183", "amenity": "bank", "name": "Emirates NBD", "name:en": "Emirates NBD"}
, {"id": "1866441184", "lat": "25.2597281", "lon": "55.372675", "amenity": "bank", "name": "HSBC", "name:en": "HSBC"}
, {"id": "1906796440", "lat": "25.1945148", "lon": "55.4076843", "addr:city": "\u0627\u0644\u0648\u0631\u0642\u0627\u0621", "addr:street": "\u0645\u0646\u0637\u0642\u0629 \u0646\u062f \u0627\u0644\u062d\u0645\u0631 \u062e\u0644\u0641 \u0645\u0646 \u0627\u0633\u0648\u0627\u0642", "amenity": "post_office", "name": "Al Warqa Post Office", "name:en": "Al Warqa Post Office", "opening_hours": "Sa-Th 07:30-15:00", "operator": "Emirates Post"}
, {"id": "1906797627", "lat": "25.1945437", "lon": "55.4078262", "amenity": "post_box", "name": "Al Warqa Post Office", "name:en": "Al Warqa Post Office"}
, {"id": "1922538871", "lat": "25.138547", "lon": "55.188428", "amenity": "parking;pub", "name": "Uptown Bar", "name:en": "Uptown Bar", "parking": "surface"}
, {"id": "1925908269", "lat": "25.2245282", "lon": "55.4241623", "addr:locality": "Uptown Mirdif Mall", "amenity": "police", "name": "police", "name:en": "police"}
, {"id": "1934490693", "lat": "25.262207", "lon": "55.4411381", "amenity": "fast_food", "contact:email": "crm@mcdonalds-uae.com", "contact:phone": "+971 600 588885", "contact:website": "https://www.mcdelivery.ae/", "cuisine": "american;burger", "name": "McDonald's", "name:ar": "\u0645\u0627\u0643\u062f\u0648\u0646\u0627\u0644\u062f\u0632", "name:en": "McDonald's", "opening_hours": "Mo-Su 10:00-03:00", "operator": "EMIRATES FAST FOOD CO.", "takeaway": "yes"}
, {"id": "1935187639", "lat": "25.2662213", "lon": "55.4522104", "amenity": "place_of_worship", "denomination": "sunni", "language:ar": "main", "name": "\u0645\u0633\u062c\u062f \u062c\u0645\u0639\u0629", "name:ar": "\u0645\u0633\u062c\u062f \u062c\u0645\u0639\u0629", "name:en": "Juma Mosque", "religion": "muslim"}
, {"id": "1935187640", "lat": "25.2694", "lon": "55.4478052", "amenity": "place_of_worship", "name": "Local Mosque", "name:en": "Local Mosque", "religion": "muslim"}
, {"id": "1935192211", "lat": "25.2612477", "lon": "55.4411773", "amenity": "pharmacy", "name": "Life Mezhar Pharmacy", "name:en": "Life Mezhar Pharmacy"}
, {"id": "1935196193", "lat": "25.2577969", "lon": "55.4415781", "amenity": "fuel", "brand": "ENOC", "name": "\u0627\u064a\u0646\u0648\u0643", "name:ar": "\u0627\u064a\u0646\u0648\u0643", "name:en": "ENOC", "operator": "ENOC"}
, {"id": "1935196194", "lat": "25.257644", "lon": "55.4418732", "amenity": "fast_food", "contact:email": "crm@mcdonalds-uae.com", "contact:facebook": "https://www.facebook.com/McDonaldsUAE", "contact:phone": "+971 600 588885", "contact:website": "https://www.mcdelivery.ae/", "name": "McDonald's", "name:en": "Mcdonalds 24h", "opening_hours": "24/7", "operator": "EMIRATES FAST FOOD CO."}
, {"id": "1935196195", "lat": "25.2577959", "lon": "55.4411022", "amenity": "fast_food", "name": "SubWay", "name:en": "SubWay"}
, {"id": "1935196197", "lat": "25.2579109", "lon": "55.4411168", "amenity": "fast_food", "name": "Just Falafel", "name:en": "Just Falafel"}
, {"id": "1935233243", "lat": "25.2479357", "lon": "55.4536105", "amenity": "fuel", "brand": "ENOC", "name": "\u0627\u064a\u0646\u0648\u0643", "name:ar": "\u0627\u064a\u0646\u0648\u0643", "name:en": "ENOC", "operator": "ENOC"}
, {"id": "1935628062", "lat": "25.1390801", "lon": "55.1890027", "amenity": "fast_food", "name": "Julshan`s Kitchen", "name:en": "Julshan`s Kitchen"}
, {"id": "1935628068", "lat": "25.1400312", "lon": "55.1897001", "amenity": "fast_food", "name": "Sinbad`s Galley", "name:en": "Sinbad`s Galley"}
, {"id": "1971953988", "lat": "25.2250399", "lon": "55.1692884", "amenity": "ferry_terminal", "cargo": "passengers", "ferry": "yes", "name": "\u0622\u064a\u0644\u0627\u0646\u062f \u0628\u064a\u062a\u0634 \u0643\u0644\u0648\u0628", "name:ar": "\u0622\u064a\u0644\u0627\u0646\u062f \u0628\u064a\u062a\u0634 \u0643\u0644\u0648\u0628", "name:en": "The Island Beach Club", "public_transport": "station"}
, {"id": "1982736107", "lat": "25.0772518", "lon": "55.1503132", "amenity": "restaurant", "cuisine": "lebanese", "name": "Lebanos", "name:en": "Lebanos"}
, {"id": "2006144381", "lat": "25.0036745", "lon": "55.1635213", "amenity": "restaurant", "name": "Aquamarine", "name:en": "Aquamarine", "opening_hours": "10:00-22:00"}
, {"id": "2007766694", "lat": "25.0949126", "lon": "55.1663331", "amenity": "restaurant", "name": "Organic Caf\u00e9"}
, {"id": "2007766696", "lat": "25.0955995", "lon": "55.1671726", "addr:city": "\u062f\u0628\u064a", "amenity": "cafe", "brand": "\u0633\u062a\u0627\u0631\u0628\u0643\u0633", "name": "\u0633\u062a\u0627\u0631\u0628\u0643\u0633", "name:ar": "\u0633\u062a\u0627\u0631\u0628\u0643\u0633", "name:en": "Starbucks", "operator": "\u0633\u062a\u0627\u0631\u0628\u0643\u0633"}
, {"id": "2019402290", "lat": "24.9849821", "lon": "55.1087819", "amenity": "fast_food", "brand": "Burger King", "brand:wikidata": "Q177054", "brand:wikipedia": "en:Burger King", "cuisine": "burger", "name": "Burger King", "name:ar": "\u0628\u0631\u062c\u0631 \u0643\u0646\u062c", "name:en": "Burger King", "takeaway": "yes"}
, {"id": "2019402291", "lat": "24.9848752", "lon": "55.1091057", "amenity": "fast_food", "cuisine": "chicken", "name": "Texaschicken", "name:en": "Texaschicken"}
, {"id": "2019411295", "lat": "25.220465", "lon": "55.2803615", "amenity": "restaurant", "brand": "Wagamama", "brand:wikidata": "Q503715", "brand:wikipedia": "en:Wagamama", "cuisine": "asian", "name": "Wagamama", "name:en": "Wagamama", "website": "https://www.wagamama.ae/"}
, {"id": "2019413195", "lat": "25.2111562", "lon": "55.2742101", "amenity": "restaurant", "brand": "Pizza Hut", "brand:wikidata": "Q191615", "brand:wikipedia": "en:Pizza Hut", "cuisine": "pizza", "name": "Pizza Hut", "name:en": "Pizza Hut", "opening_hours": "24/7", "takeaway": "yes"}
, {"id": "2019413196", "lat": "25.2086915", "lon": "55.2725145", "amenity": "fast_food", "internet_access": "wlan", "name": "ZatarWZeit", "name:en": "ZatarWZeit", "takeaway": "yes"}
, {"id": "2035866392", "lat": "25.1549667", "lon": "55.2040231", "amenity": "restaurant", "name": "\u0637\u0647\u0631\u0627\u0646", "name:ar": "\u0637\u0647\u0631\u0627\u0646", "name:en": "Tehran", "name:fa": "\u0637\u0647\u0631\u0627\u0646"}
, {"id": "2037731774", "lat": "25.0926015", "lon": "55.1862219", "amenity": "fast_food", "contact:email": "crm@mcdonalds-uae.com", "contact:phone": "+971 600 588885", "contact:website": "https://www.mcdelivery.ae/", "cuisine": "american;burger", "name": "McDonald's", "name:ar": "\u0645\u0627\u0643\u062f\u0648\u0646\u0627\u0644\u062f\u0632", "name:en": "McDonald's", "opening_hours": "24/7", "operator": "EMIRATES FAST FOOD CO.", "takeaway": "yes"}
, {"id": "2037732294", "lat": "25.0998113", "lon": "55.1722622", "amenity": "fast_food", "brand": "Burger King", "brand:wikidata": "Q177054", "brand:wikipedia": "en:Burger King", "cuisine": "burger", "name": "Burger King", "name:en": "Burger King", "takeaway": "yes"}
, {"id": "2037732295", "lat": "25.0998883", "lon": "55.1721882", "amenity": "fast_food", "cuisine": "sandwich", "name": "Subway", "name:en": "Subway"}
, {"id": "2037732296", "lat": "25.0999796", "lon": "55.1721079", "amenity": "fast_food", "name": "Zoom", "name:en": "Zoom"}
, {"id": "2043297363", "lat": "25.0510111", "lon": "55.2685857", "amenity": "restaurant", "name": "Arabian Ranches Golf Club", "name:en": "Arabian Ranches Golf Club"}
, {"id": "2043297364", "lat": "25.0374372", "lon": "55.2533212", "amenity": "restaurant", "name": "Palermo", "name:en": "Palermo"}
, {"id": "2043355730", "lat": "25.076589", "lon": "55.132806", "amenity": "restaurant", "name": "The Butcher Shop & Grill", "name:en": "The Butcher Shop & Grill", "outdoor_seating": "yes", "source": "Site survey"}
, {"id": "2043355732", "lat": "25.0771825", "lon": "55.1335999", "addr:street": "Al Mamsha Street", "amenity": "restaurant", "name": "El Chico Mexican", "name:en": "El Chico Mexican", "source": "Kaart Ground Survey 2017", "wheelchair": "limited"}
, {"id": "2043355733", "lat": "25.07279", "lon": "55.1296608", "addr:street": "King Salman bin Abdulaziz Al Saud Street", "amenity": "cafe", "brand": "Starbucks", "brand:wikidata": "Q37158", "brand:wikipedia": "en:Starbucks", "cuisine": "coffee_shop", "name": "Starbucks", "name:en": "Starbucks", "official_name": "Starbucks Coffee", "source": "Kaart Ground Survey 2017", "takeaway": "yes", "wheelchair": "limited"}
, {"id": "2043355734", "lat": "25.0809152", "lon": "55.1375564", "addr:street": "Al Mamsha Street", "amenity": "cafe", "brand": "Starbucks", "brand:wikidata": "Q37158", "brand:wikipedia": "en:Starbucks", "cuisine": "coffee_shop", "name": "Starbucks", "name:en": "Starbucks", "official_name": "Starbucks Coffee", "opening_hours": "24/7", "source": "Kaart Ground Survey 2017", "takeaway": "yes"}
, {"id": "2043356301", "lat": "25.1029819", "lon": "55.1753261", "amenity": "restaurant", "cuisine": "indian", "name": "Paragon", "name:en": "Paragon"}
, {"id": "2043359383", "lat": "25.0791256", "lon": "55.135715", "addr:street": "Al Mamsha Street", "amenity": "restaurant", "brand": "IHOP", "brand:wikidata": "Q1185675", "brand:wikipedia": "en:IHOP", "cuisine": "breakfast;pancake", "name": "IHOP", "name:en": "Ihop", "opening_hours": "24/7", "source": "Kaart Ground Survey 2017", "wheelchair": "limited"}
, {"id": "2045397422", "lat": "25.0726238", "lon": "55.136065", "amenity": "bar", "name": "Aquara Restaurant & Lounge", "name:en": "Aquara Restaurant & Lounge"}
, {"id": "2045397423", "lat": "25.0727404", "lon": "55.1363007", "amenity": "pub", "name": "Yots Sports Lounge", "name:en": "Yots Sports Lounge"}
, {"id": "2045401090", "lat": "25.0710811", "lon": "55.1355873", "addr:street": "Al Hubob Street", "amenity": "fast_food", "internet_access": "wlan", "name": "Bob\u2019s Fish and Chips", "source": "Kaart Ground Survey 2017"}
, {"id": "2045676409", "lat": "25.0727566", "lon": "55.1382139", "amenity": "car_rental", "name": "Budget Rent a Car", "name:en": "Budget Rent a Car"}
, {"id": "2054830698", "lat": "25.0695075", "lon": "55.1348978", "addr:street": "Al Sayora Street", "amenity": "bank", "atm": "yes", "name": "RAK Bank", "name:en": "RAK Bank", "source": "Kaart Ground Survey 2017"}
, {"id": "2059550879", "lat": "25.091774", "lon": "55.1458121", "amenity": "nightclub", "name": "Barasti", "name:en": "Barasti"}
, {"id": "2062356008", "lat": "25.0756833", "lon": "55.1378742", "amenity": "ferry_terminal", "cargo": "passengers", "ferry": "yes", "name": "\u0645\u0631\u0633\u0649 \u062f\u0628\u064a", "name:ar": "\u0645\u0631\u0633\u0649 \u062f\u0628\u064a", "name:en": "Dubai Marina", "name:fa": "\u062f\u0628\u06cc \u0645\u0627\u0631\u06cc\u0646\u0627", "name:ur": "\u062f\u0628\u0626\u06cc \u0644\u0646\u06af\u0631 \u06af\u0627\u06c1", "public_transport": "station", "wheelchair": "yes"}
, {"id": "2063888073", "lat": "25.0765475", "lon": "55.1352795", "amenity": "cafe", "brand": "Starbucks", "brand:wikidata": "Q37158", "brand:wikipedia": "en:Starbucks", "cuisine": "coffee_shop", "name": "Starbucks", "name:en": "Starbucks", "official_name": "Starbucks Coffee", "operator": "Starbucks", "takeaway": "yes", "wheelchair": "limited"}
, {"id": "2064795565", "lat": "25.0940737", "lon": "55.1593523", "amenity": "fast_food", "name": "Al Safeer", "name:en": "Al Safeer"}
, {"id": "2064795566", "lat": "25.0938341", "lon": "55.1610669", "amenity": "cafe", "name": "Beans & Byte", "name:en": "Beans & Byte"}
, {"id": "2064795567", "lat": "25.0938651", "lon": "55.1592652", "amenity": "cafe", "name": "Costa", "name:en": "Costa"}
, {"id": "2064795568", "lat": "25.0940504", "lon": "55.1614561", "amenity": "restaurant", "cuisine": "indian", "name": "Gazebo Internet City", "name:en": "Gazebo Internet City"}
, {"id": "2064795569", "lat": "25.0939712", "lon": "55.1592078", "amenity": "fast_food", "cuisine": "chinese", "name": "Golden Dragon", "name:en": "Golden Dragon"}
, {"id": "2064795570", "lat": "25.0940054", "lon": "55.1592559", "amenity": "fast_food", "cuisine": "indian", "name": "Kamat Vegeterian Restaurant", "name:en": "Kamat Vegeterian Restaurant"}
, {"id": "2064795571", "lat": "25.0936831", "lon": "55.1611266", "amenity": "restaurant", "name": "Labneh Wa Zaatar", "name:en": "Labneh Wa Zaatar"}
, {"id": "2064795572", "lat": "25.0940396", "lon": "55.1593041", "amenity": "fast_food", "name": "Seven Stones", "name:en": "Seven Stones"}
, {"id": "2064795573", "lat": "25.093816", "lon": "55.1609228", "amenity": "restaurant", "name": "Shish Kebap", "name:en": "Shish Kebap"}
, {"id": "2064795574", "lat": "25.0939692", "lon": "55.1613455", "amenity": "restaurant", "name": "Southern Fried Chicken", "name:en": "Southern Fried Chicken"}
, {"id": "2064795575", "lat": "25.0941079", "lon": "55.1594004", "amenity": "fast_food", "cuisine": "sandwich", "name": "Subway", "name:en": "Subway"}
, {"id": "2064795576", "lat": "25.0940098", "lon": "55.1614008", "amenity": "restaurant", "name": "The Vineyard", "name:en": "The Vineyard"}
, {"id": "2065138117", "lat": "25.0705999", "lon": "55.1351368", "addr:street": "Al Hubob Street", "amenity": "marketplace", "name": "Pampered Pets", "name:en": "Pampered Pets", "source": "Kaart Ground Survey 2017"}
, {"id": "2065138127", "lat": "25.0733233", "lon": "55.136746", "amenity": "restaurant", "name": "Kitchen Cafe", "name:en": "Kitchen Cafe"}
, {"id": "2065138136", "lat": "25.0735905", "lon": "55.137988", "amenity": "fast_food", "name": "Blends", "name:en": "Blends"}
, {"id": "2065138143", "lat": "25.0738122", "lon": "55.1382069", "addr:street": "Al Hubob Street", "amenity": "fast_food", "name": "Potato Hut", "name:en": "Potato Hut", "source": "Kaart Ground Survey 2017"}
, {"id": "2065138151", "lat": "25.0737387", "lon": "55.1381383", "addr:street": "Al Hubob Street", "amenity": "pharmacy", "name": "Life Pharmacy", "name:en": "Life Pharmacy", "operator": "Mansion Pharmacy L.L.C.", "source": "Kaart Ground Survey 2017"}
, {"id": "2065304080", "lat": "25.0720261", "lon": "55.1277832", "amenity": "fast_food", "name": "Blends", "name:en": "Blends"}
, {"id": "2070271270", "lat": "25.0116237", "lon": "55.0950209", "amenity": "fast_food", "cuisine": "fried_chicken", "delivery": "yes", "internet_access": "no", "level": "0", "name": "\u062f\u062c\u0627\u062c \u0643\u0646\u062a\u0627\u0643\u064a", "name:ar": "\u062f\u062c\u0627\u062c \u0643\u0646\u062a\u0627\u0643\u064a", "name:en": "KFC", "name:ja": "\u30b1\u30f3\u30bf\u30c3\u30ad\u30fc", "operator": "Kuwait Food Company (Armericana)", "smoking": "no", "takeaway": "yes"}
, {"id": "2070271300", "lat": "25.011883", "lon": "55.0947787", "amenity": "fuel", "brand": "EPPCO", "fuel:diesel": "yes", "fuel:octane_95": "yes", "fuel:octane_98": "yes", "name": "\u0627\u064a\u0628\u0643\u0648", "name:ar": "\u0627\u064a\u0628\u0643\u0648", "name:en": "EPPCO", "opening_hours": "24/7", "operator": "EPPCO", "shop": "convenience"}
, {"id": "2070479950", "lat": "25.1000801", "lon": "55.1719979", "amenity": "cafe", "name": "Costa", "name:en": "Costa"}
, {"id": "2071125634", "lat": "25.0982554", "lon": "55.1796239", "amenity": "bar", "name": "Rock Bottom", "name:en": "Rock Bottom"}
, {"id": "2080589540", "lat": "25.117068", "lon": "55.196649", "amenity": "restaurant", "name": "Mall View Palace", "name:en": "Mall View Palace"}
, {"id": "2095027799", "lat": "25.1104704", "lon": "55.1371267", "amenity": "restaurant", "cuisine": "steak", "name": "West 14th", "name:en": "West 14th", "website": "http://www.west14th.ae/"}
, {"id": "2102647793", "lat": "25.076178", "lon": "55.1345098", "amenity": "parking_entrance", "name": "Rimal Parking P2", "name:en": "Rimal Parking P2", "operator": "Jumeirah Beach Residence", "parking": "underground"}
, {"id": "2102647835", "lat": "25.0758543", "lon": "55.1334362", "amenity": "parking_entrance", "name": "Rimal Parking P3", "name:en": "Rimal Parking P3", "operator": "Jumeira Beach Residence", "parking": "underground"}
, {"id": "2104522903", "lat": "25.0829357", "lon": "55.1402943", "amenity": "parking", "name": "Murjan Parking P1", "name:en": "Murjan Parking P1", "operator": "Jumeirah Beach Residence", "parking": "underground"}
, {"id": "2104522908", "lat": "25.0770481", "lon": "55.1348383", "amenity": "parking_entrance", "name": "Rimal Parking P1", "name:en": "Rimal Parking P1", "operator": "Jumeirah Beach Residence", "parking": "underground"}
, {"id": "2104522919", "lat": "25.0803254", "lon": "55.1387546", "amenity": "parking_entrance", "name": "Sadaf Parking P2", "name:en": "Sadaf Parking P2", "operator": "Jumeirah Beach Residence", "parking": "underground"}
, {"id": "2104522939", "lat": "25.0771853", "lon": "55.1349747", "amenity": "parking_entrance", "name": "Bahar Parking P4", "name:en": "Bahar Parking P4", "operator": "Jumeirah Beach residence"}
, {"id": "2133035497", "lat": "25.1710411", "lon": "55.3228325", "amenity": "fuel", "brand": "EPPCO", "name": "\u0627\u064a\u0628\u0643\u0648", "name:ar": "\u0627\u064a\u0628\u0643\u0648", "name:en": "EPPCO", "operator": "EPPCO"}
, {"id": "2133497445", "lat": "25.2359522", "lon": "55.2796412", "amenity": "restaurant", "name": "Golden Fork", "name:en": "Golden Fork"}
, {"id": "2142584866", "lat": "25.2632728", "lon": "55.2997155", "addr:city": "Dubai", "amenity": "restaurant", "cuisine": "regional", "email": "branch01@arabianteahouse.co", "name": "Arabian Tea House", "name:en": "Arabian Tea House", "phone": "(+971-4) 353-5071", "website": "http://www.arabianteahouse.co"}
, {"id": "2142584867", "lat": "25.2633647", "lon": "55.299892", "amenity": "restaurant", "cuisine": "regional", "name": "Local House", "name:en": "Local House"}
, {"id": "2169693470", "lat": "25.3089093", "lon": "55.3667755", "amenity": "school", "fixme": "please ad outline, buidling etc", "name": "Victoria International School Sharaj", "name:en": "Victoria International School Sharaj", "short_name": "VISS", "website": "www.viss.ae"}
, {"id": "2195294948", "lat": "25.1420819", "lon": "55.2266574", "amenity": "auditorium", "name": "The Fridge", "name:en": "The Fridge"}
, {"id": "2209986935", "lat": "25.0771109", "lon": "55.1394289", "amenity": "bicycle_rental", "name": "byky", "name:en": "byky"}
, {"id": "2246362114", "lat": "25.2288096", "lon": "55.3190917", "amenity": "marketplace", "name": "\u062e\u0627\u0646 \u0645\u0631\u062c\u0627\u0646", "name:ar": "\u062e\u0627\u0646 \u0645\u0631\u062c\u0627\u0646", "name:en": "Khan Murjan", "source": "+971 4 327 9795"}
, {"id": "2246385774", "lat": "25.1971144", "lon": "55.2739147", "addr:city": "Dubai", "addr:street": "Shaikh Mohammed bin Rashid Boulevard", "amenity": "restaurant", "cuisine": "international", "name": "Armani/Amal", "name:en": "Armani/Amal", "website": "https://dubai.armanihotels.com/"}
, {"id": "2246387756", "lat": "25.2587804", "lon": "55.3197", "addr:housename": "Hilton Dubai Creek", "addr:street": "Beniyas Road", "amenity": "restaurant", "cuisine": "international", "name": "Table 9", "name:en": "Table 9", "source": "+971 4 212 7551", "website": "http://www.table9dubai.com/"}
, {"id": "2246390965", "lat": "25.2614604", "lon": "55.3139587", "addr:housename": "Sheraton Dubai Creek Hotel & Towers", "addr:street": "Baniyas Street", "amenity": "restaurant", "cuisine": "indian", "name": "Ashiana", "name:en": "Ashiana", "source": "+971 4 2071733", "website": "http://www.sheratondubaicreek.com/"}
, {"id": "2246397658", "lat": "25.2173429", "lon": "55.4071287", "addr:housename": "Mirdif City Centre", "amenity": "restaurant", "cuisine": "asian", "name": "P F Chang", "name:en": "P F Chang", "website": "http://www.mirdifcitycentre.com/en"}
, {"id": "2246423608", "lat": "25.0929939", "lon": "55.148868", "addr:housename": "The Westin Dubai Mina Seyahi Beach Resort & Marina", "addr:street": "Jumeirah Beach Rd", "amenity": "restaurant", "cuisine": "steak_house", "name": "Hunters Room & Grill", "name:en": "Hunters Room & Grill", "source": "+971 (4) 399 4141", "website": "https://www.huntersdubai.com/"}
, {"id": "2246431370", "lat": "25.2295968", "lon": "55.3186789", "addr:housename": "Wafi", "addr:street": "Oud Metha", "amenity": "restaurant", "cuisine": "international", "name": "Carter's", "name:en": "Carter's", "source": "+971 4 324 4100", "website": "https://www.roundmenu.com/restaurant/Carters-Dubai/82"}
, {"id": "2246442670", "lat": "25.2432821", "lon": "55.3418249", "addr:housename": "Aviation Club", "addr:street": "-Al Garhoud", "amenity": "bar", "name": "The Irish Village", "name:en": "The Irish Village", "source": "+971 4 282 4750", "toilets:wheelchair": "yes", "website": "http://www.irishvillage.ae/HomePage", "wheelchair": "yes"}
, {"id": "2246454437", "lat": "25.2264412", "lon": "55.2841433", "addr:housename": "Fairmont Hotel", "addr:street": "Sheikh Zayed Road", "amenity": "bar", "name": "Cavalli Club", "name:en": "Cavalli Club", "source": "+971 4 332 9260", "website": "http://www.cavalliclubdubai.com/"}
, {"id": "2246469718", "lat": "25.1357038", "lon": "55.1866875", "addr:housename": "Burj Al Arab", "addr:street": "Jumeirah Beach Road", "amenity": "bar", "name": "Skyview Bar", "name:en": "Skyview Bar", "source": "+971 4 301 7600", "website": "https://www.jumeirah.com/Hotels-and-Resorts/Reiseziele/Dubai/Burj-Al-Arab/Restaurants-And-Nightlife/Skyview-Bar/"}
, {"id": "2246484276", "lat": "25.085947", "lon": "55.14424", "addr:housename": "Grosvenor House", "addr:street": "Al Sufouh Rd", "amenity": "restaurant", "cuisine": "asian", "internet_access": "wlan", "name": "Buddha Bar", "name:en": "Buddha Bar", "opening_hours": "19:00+", "phone": "+ 971 43 998 888", "smoking": "no", "source": "+971 4 399 8888", "website": "https://www.buddhabar.com/en/restaurant-bar-buddha-bar-dubai-9"}
, {"id": "2246487478", "lat": "25.2263473", "lon": "55.2840585", "addr:housename": "Fairmont Hotel", "addr:street": "Sheikh Zayed Road", "amenity": "bar", "name": "Cirque du Soir", "name:en": "Cirque du Soir", "source": "+971 4 332 4900", "website": "http://www.cirquedusoirdubai.com"}
, {"id": "2246494395", "lat": "25.1395457", "lon": "55.2192977", "addr:housename": "Time Square Center", "addr:street": "4B Street", "amenity": "bar", "name": "Chill Out Lounge", "name:en": "Chill Out Lounge"}
, {"id": "2265644008", "lat": "25.0796714", "lon": "55.1419793", "amenity": "restaurant", "cuisine": "italian", "name": "Gusto", "name:en": "Gusto"}
, {"id": "2265644608", "lat": "25.0795136", "lon": "55.142366", "amenity": "restaurant", "cuisine": "Lebanese wraps", "name": "Zaatar W Zeit", "name:en": "Zaatar W Zeit"}
, {"id": "2265646929", "lat": "25.0797273", "lon": "55.1417885", "amenity": "restaurant", "cuisine": "persian", "name": "Moda Cafe", "name:en": "Moda Cafe"}
, {"id": "2265647441", "lat": "25.0796205", "lon": "55.1417008", "amenity": "fast_food", "cuisine": "pizza", "name": "NKD Pizza", "name:en": "NKD Pizza"}
, {"id": "2265649242", "lat": "25.0795223", "lon": "55.142114", "amenity": "restaurant", "cuisine": "seafood", "name": "Fisherman's Wharf", "name:en": "Fisherman's Wharf"}
, {"id": "2269838356", "lat": "25.04708", "lon": "55.1296393", "addr:street": "Gardens Boulevard", "amenity": "kindergarten", "name": "Chubby cheeks Nursary", "name:en": "Chubby cheeks Nursary", "source": "Kaart Ground Survey 2017"}
, {"id": "2269846876", "lat": "25.0462292", "lon": "55.1176177", "amenity": "bus_station", "name": "Ibn Battuta Bus Station Bus E101", "name:en": "Ibn Battuta Bus Station Bus E101"}
, {"id": "2303810396", "lat": "25.215938", "lon": "55.2796567", "amenity": "bank", "name": "Russian Middle-Eastern Bank", "name:en": "Russian Middle-Eastern Bank"}
, {"id": "2323021320", "lat": "25.1394784", "lon": "55.2170815", "addr:city": "Dubai", "addr:housename": "Al Manara Street, Sheikh Zayed Road, Dubai", "addr:postcode": "6656", "amenity": "restaurant", "cuisine": "arab", "description": "A top restaurant in Dubai UAE offers authentic Arabic food and Sheesha. One of the best restaurants, cafes and bakery chain in Dubai.", "name": "Reem Al Bawadi (Sheikh Zayed Road Branch)", "name:en": "Reem Al Bawadi (Sheikh Zayed Road Branch)", "phone": "043306663", "website": "http://www.reemalbawadi.com", "wheelchair": "yes"}
, {"id": "2323031904", "lat": "25.1862186", "lon": "55.2292907", "addr:city": "Dubai", "addr:housename": "Jumeirah Beach road", "addr:street": "Jumeirah Street", "amenity": "restaurant", "cuisine": "arab", "name": "\u0634\u0627\u0631\u0639 \u062c\u0645\u064a\u0631\u0627", "name:en": "Reem Al Bawadi (Jumeirah Beach Road Branch)", "note": "A top restaurant in Dubai UAE offers authentic Arabic food and Sheesha. One of the best restaurants, cafes and bakery chain in Dubai.", "phone": "043947444", "source": "Kaart Ground Survey 2017", "website": "http://www.reemalbawadi.com", "wheelchair": "yes"}
, {"id": "2323046888", "lat": "25.197121", "lon": "55.2708526", "addr:city": "Dubai", "addr:street": "\u0634\u0627\u0631\u0639 \u0627\u0644\u0634\u064a\u062e \u0645\u062d\u0645\u062f \u0628\u0646 \u0631\u0627\u0634\u062f", "addr:street:en": "Shaikh Mohammed bin Rashid Boulevard", "amenity": "restaurant", "cuisine": "arab", "name": "Reem Al Bawadi (Downtown Branch)", "name:en": "Reem Al Bawadi (Downtown Branch)", "phone": "044439690", "website": "http://www.reemalbawadi.com", "wheelchair": "yes"}
, {"id": "2329146996", "lat": "25.3011697", "lon": "55.4130388", "amenity": "fuel", "name": "Spair parts", "name:en": "Spair parts"}
, {"id": "2375621531", "lat": "25.0490823", "lon": "55.1307732", "amenity": "restaurant", "name": "Breakfast to Breakfast", "name:en": "Breakfast to Breakfast"}
, {"id": "2375621532", "lat": "25.048641", "lon": "55.1290328", "addr:street": "Street 1 A", "amenity": "fast_food", "cuisine": "pizza", "name": "Domino's Pizza", "name:en": "Domino's Pizza", "source": "Kaart Ground Survey 2017"}
, {"id": "2375621533", "lat": "25.0487818", "lon": "55.1296443", "amenity": "restaurant", "name": "New Midnight Cafe & Restaurant", "name:en": "New Midnight Cafe & Restaurant"}
, {"id": "2375621534", "lat": "25.0490227", "lon": "55.1299784", "addr:street": "1 A Street", "amenity": "hospital", "name": "Aster Medical", "name:en": "Aster Medical"}
, {"id": "2375983093", "lat": "25.1860647", "lon": "55.2567569", "amenity": "parking", "name": "Executive Towers parking - West", "name:en": "Executive Towers parking - West", "parking": "surface"}
, {"id": "2377093899", "lat": "25.2443356", "lon": "55.3048031", "addr:street": "35 Street", "amenity": "bureau_de_change", "name": "Lulu Exchange", "name:en": "Lulu Exchange", "source": "Kaart Ground Survey 2017"}
, {"id": "2377100895", "lat": "25.2380689", "lon": "55.3022891", "addr:street": "16th Street", "amenity": "restaurant", "diet:vegetarian": "only", "name": "Ajanta Restaurant", "name:en": "Ajanta Restaurant", "source": "Kaart Ground Survey 2017"}
, {"id": "2377100969", "lat": "25.2390043", "lon": "55.3019089", "amenity": "restaurant", "diet:vegetarian": "only", "name": "Himalaya Restaurant", "name:en": "Himalaya Restaurant"}
, {"id": "2377102604", "lat": "25.2387107", "lon": "55.302963", "amenity": "restaurant", "cuisine": "indian", "name": "Sind Punjab Restaurant", "name:en": "Sind Punjab Restaurant"}
, {"id": "2377115342", "lat": "25.0970562", "lon": "55.1787933", "addr:city": "Dubai", "addr:housename": "Ground Floor, MCN Hive", "addr:postcode": "6834", "addr:street": "TECOM SECTION C", "amenity": "restaurant", "cuisine": "Lebanese_Breakfast_Lunch_Buffet", "name": "Lila Cafe", "name:en": "Lila Cafe", "phone": "+971 4 4543064"}
, {"id": "2382993820", "lat": "25.1381086", "lon": "55.1979413", "amenity": "kindergarten", "name": "Kids Palace Nursery", "name:en": "Kids Palace Nursery"}
, {"id": "2388369603", "lat": "25.1142022", "lon": "55.2054057", "addr:street": "3 Street", "amenity": "restaurant", "designation": "Arabic", "name": "Shawarmaji Restaurant and Coffee Shop", "name:en": "Shawarmaji Restaurant and Coffee Shop", "source": "Kaart Ground Survey 2017"}
, {"id": "2390942342", "lat": "25.2220331", "lon": "55.2586133", "addr:street": "51st Street", "amenity": "cafe", "name": "\u0645\u0637\u0639\u0645 \u0645\u0643\u0633\u064a\u0646", "name:ar": "\u0645\u0637\u0639\u0645 \u0645\u0643\u0633\u064a\u0646", "name:en": "Maxine Cafe", "source": "Kaart Ground Survey 2017"}
, {"id": "2390945607", "lat": "25.2121618", "lon": "55.2575703", "addr:street": "Al Safa Street", "amenity": "pharmacy", "healthcare": "pharmacy", "name": "Life Pharmacy", "name:en": "Life Pharmacy", "source": "Kaart Ground Survey 2017"}
, {"id": "2390945608", "lat": "25.2113011", "lon": "55.2571562", "addr:street": "Al Wasl Road", "amenity": "bank", "name": "Emirates Bank", "name:en": "Emirates Bank", "source": "Kaart Ground Survey 2017"}
, {"id": "2392309327", "lat": "25.1980377", "lon": "55.2459049", "amenity": "embassy", "country": "DZ", "name": "Consulate General of Algeria", "name:en": "Consulate General of Algeria"}
, {"id": "2408769205", "lat": "25.0746899", "lon": "55.1337017", "amenity": "cafe", "name": "Starbucks", "name:en": "Starbucks"}
, {"id": "2429425565", "lat": "25.1334706", "lon": "55.1866609", "amenity": "parking_entrance", "name": "Car Parking - Souk Madinat Jumeirah", "name:en": "Car Parking - Souk Madinat Jumeirah", "parking": "underground"}
, {"id": "2456904521", "lat": "25.2554187", "lon": "55.3036152", "addr:city": "Dubai", "amenity": "restaurant", "cuisine": "indian", "name": "Aryaa's", "name:en": "Aryaa's", "wifi": "no"}
, {"id": "2457880806", "lat": "25.2646739", "lon": "55.2968828", "addr:city": "\u062f\u0628\u064a", "addr:city:ar": "\u062f\u0628\u064a", "amenity": "place_of_worship", "name": "\u0645\u0639\u0628\u062f \u0634\u0631\u064a\u0646\u062b\u062c\u064a", "name:ar": "\u0645\u0639\u0628\u062f \u0634\u0631\u064a\u0646\u062b\u062c\u064a", "name:en": "Srinathji Temple", "religion": "hindu"}
, {"id": "2459773479", "lat": "25.201155", "lon": "55.27287", "addr:city": "Dubai", "addr:housenumber": "Building 1", "addr:street": "Emaar Square", "amenity": "restaurant", "cuisine": "italian", "name": "Hey Pesto", "name:en": "Hey Pesto", "phone": "04-4257982", "takeaway": "yes"}
, {"id": "2459782014", "lat": "25.195062", "lon": "55.277071", "addr:city": "Dubai", "addr:street": "Souk Al Bahar", "amenity": "restaurant", "indoor_seating": "yes", "name": "Karma Kaf\u00e9", "outdoor_seating": "yes"}
, {"id": "2465617684", "lat": "25.1977339", "lon": "55.2816209", "access": "yes", "amenity": "parking_entrance", "covered": "yes", "fee": "no", "lit": "yes", "name": "Cinema Parking Dubai Mall", "name:en": "Cinema Parking Dubai Mall", "parking": "multi-storey", "surface": "asphalt"}
, {"id": "2473279323", "lat": "25.1047397", "lon": "55.1681453", "amenity": "restaurant", "name": "Oregano", "name:en": "Oregano"}
, {"id": "2473312545", "lat": "25.2661594", "lon": "55.3757349", "addr:street": "Damascus Street", "amenity": "library", "name": "Public Library", "name:en": "Public Library", "source": "Kaart Ground Survey 2017"}
, {"id": "2482073110", "lat": "25.2066585", "lon": "55.2679979", "addr:street": "Al Safa Street", "amenity": "car_wash", "name": "Express car wash", "name:en": "Express car wash", "source": "Kaart Ground Survey 2017"}
, {"id": "2482076968", "lat": "25.2065676", "lon": "55.2681392", "addr:street": "Al Safa Street", "amenity": "compressed_air", "name": "BP Grand Lube", "name:en": "BP Grand Lube", "note": "Oil and other fluid change center", "source": "Kaart Ground Survey 2017"}
, {"id": "2482178421", "lat": "25.1965195", "lon": "55.2823688", "amenity": "parking", "name": "Grand Parking", "name:en": "Grand Parking"}
, {"id": "2482254365", "lat": "25.2815773", "lon": "55.4114889", "amenity": "fast_food", "contact:email": "crm@mcdonalds-uae.com", "contact:phone": "+971 600 588885", "contact:website": "https://www.mcdelivery.ae/", "name": "McDonald's", "name:en": "Mcdonalds", "opening_hours": "24/7", "operator": "EMIRATES FAST FOOD CO."}
, {"id": "2482254401", "lat": "25.2829173", "lon": "55.4117206", "amenity": "fuel", "brand": "Emarat", "name": "\u0627\u0645\u0627\u0631\u0627\u062a", "name:ar": "\u0627\u0645\u0627\u0631\u0627\u062a", "name:de": "Emarat", "name:en": "Emarat", "operator": "Emarat", "source": "Kaart Ground Survey 2017"}
, {"id": "2482773821", "lat": "25.1970512", "lon": "55.282837", "access": "yes", "amenity": "parking_entrance", "covered": "yes", "fee": "no", "lit": "yes", "name": "Grand Parking", "name:en": "Grand Parking", "parking": "multi-storey", "supervised": "yes"}
, {"id": "2485941511", "lat": "25.2600165", "lon": "55.2938072", "addr:city": "Dubai", "amenity": "hospital", "name": "Aster Medical Centre (Aster Jubilee Medical Complex)", "name:en": "Aster Medical Centre (Aster Jubilee Medical Complex)", "phone": "+971 4 509 0300", "website": "http://www.astermedicalcentre.com/"}
, {"id": "2485961935", "lat": "25.2611103", "lon": "55.2925817", "addr:city": "Dubai", "addr:street": "25B Street", "amenity": "restaurant", "cuisine": "indian", "name": "Sind Punjab Restaurant", "name:en": "Sind Punjab Restaurant"}
, {"id": "2485965318", "lat": "25.2619917", "lon": "55.2917305", "addr:city": "Dubai", "addr:street": "Al Nahdha (26th) Street", "amenity": "restaurant", "cuisine": "chinese", "name": "Golden Fork Restaurant", "name:en": "Golden Fork Restaurant"}
, {"id": "2485983324", "lat": "25.2624963", "lon": "55.2897976", "addr:city": "Dubai", "addr:street": "Al Raffa Street", "amenity": "restaurant", "cuisine": "Gujarati_Thali", "name": "Puranmal", "name:en": "Puranmal"}
, {"id": "2485983327", "lat": "25.2616908", "lon": "55.2948937", "addr:city": "Dubai", "addr:housenumber": "28", "addr:street": "25C Street", "amenity": "restaurant", "contact:phone": "+971 4 353 0707", "cuisine": "Gujarati_Thali", "name": "Bhavna", "name:en": "Bhavna", "opening_hours": "Mo-Su 07:00-23:00", "operator": "Bhavna Restaurant"}
, {"id": "2486041033", "lat": "25.1709737", "lon": "55.2421538", "addr:city": "Dubai", "addr:street": "Sheikh Zayed Road", "amenity": "bank", "atm": "yes", "name": "National Bank Of Abudhabi", "name:en": "National Bank Of Abudhabi"}
, {"id": "2487989634", "lat": "25.2601734", "lon": "55.2929959", "addr:street": "Al Esbij (30th) Street", "amenity": "restaurant", "cuisine": "indian", "name": "Mithash Sweets", "name:en": "Mithash Sweets"}
, {"id": "2487989636", "lat": "25.2602438", "lon": "55.2929852", "addr:city": "Dubai", "addr:street": "Al Esbij (30th) Street", "amenity": "restaurant", "cuisine": "South_Indian", "name": "Sukh Sagar", "name:en": "Sukh Sagar"}
, {"id": "2487989637", "lat": "25.2603311", "lon": "55.2929772", "addr:city": "Dubai", "addr:street": "Al Esbij (30th) Street", "amenity": "restaurant", "cuisine": "indian", "name": "Chavadi", "name:en": "Chavadi"}
, {"id": "2487989639", "lat": "25.259835", "lon": "55.2930583", "addr:city": "Dubai", "addr:street": "Khalid bin Waleed Road", "amenity": "restaurant", "cuisine": "persian;buffet", "name": "\u0643\u0627\u0628\u0648\u0644 \u062f\u0631\u0628\u0627\u0631", "name:ar": "\u0643\u0627\u0628\u0648\u0644 \u062f\u0631\u0628\u0627\u0631", "name:en": "Kabul Darbar", "name:fa": "\u0643\u0627\u0628\u0648\u0644 \u062f\u0631\u0628\u0627\u0631", "name:ja": "\u30ab\u30d6\u30fc\u30eb\u30fb\u30c7\u30eb\u30d0\u30fc", "name:km": "\u1780\u17b6\u1794\u17ca\u17bc\u179b \u178a\u17b6\u179a\u17cf\u1794\u17b6\u179a\u17cf", "name:ko": "\uce74\ubd88 \ub2e4\ub974\ubc14\ub974"}
, {"id": "2487991629", "lat": "25.2609206", "lon": "55.2926714", "addr:city": "Dubai", "addr:street": "Al Esbij (30th) Street", "amenity": "restaurant", "cuisine": "indian", "delivery": "yes", "diet:vegetarian": "only", "name": "Sangeetha Vegetarian Restaurant", "name:en": "Sangeetha Vegetarian Restaurant", "phone": "+971 4 351 1145", "takeaway": "yes", "website": "http://sangeethavegrestaurants.com/"}
, {"id": "2487991630", "lat": "25.2620606", "lon": "55.29416", "addr:city": "Dubai", "addr:street": "25C Street", "amenity": "restaurant", "cuisine": "indian", "name": "Vaibhav", "name:en": "Vaibhav"}
, {"id": "2488003993", "lat": "25.2625264", "lon": "55.2941922", "addr:city": "Dubai", "addr:street": "Al Fahidi (19th) Street", "amenity": "bank", "atm": "yes", "name": "Emirates NBD Bank", "name:en": "Emirates NBD Bank"}
, {"id": "2488004018", "lat": "25.2648235", "lon": "55.2968261", "addr:city": "\u062f\u0628\u064a", "addr:city:ar": "\u062f\u0628\u064a", "addr:street": "\u0634\u0627\u0631\u0639 \u0639\u0644\u064a \u0628\u0646 \u0623\u0628\u064a \u0637\u0627\u0644\u0628", "addr:street:ar": "\u0634\u0627\u0631\u0639 \u0639\u0644\u064a \u0628\u0646 \u0623\u0628\u064a \u0637\u0627\u0644\u0628", "amenity": "place_of_worship", "name": "\u0645\u0639\u0628\u062f \u0647\u0646\u062f\u0648\u0633\u064a", "name:ar": "\u0645\u0639\u0628\u062f \u0647\u0646\u062f\u0648\u0633\u064a", "name:en": "Hindu Temple", "religion": "hindu", "tourism": "attraction", "wikidata": "Q5766383"}
, {"id": "2488031361", "lat": "25.2619707", "lon": "55.2898233", "addr:city": "Dubai", "addr:street": "Al Raffa Street", "amenity": "school", "name": "Emirates Driving Institute", "name:en": "Emirates Driving Institute", "operator": "EDI"}
, {"id": "2488031366", "lat": "25.2620334", "lon": "55.2898348", "addr:city": "Dubai", "addr:street": "Al Raffa Street", "amenity": "school", "name": "Belhasa Driving Institute", "name:en": "Belhasa Driving Institute", "operator": "Belhasa"}
, {"id": "2488031375", "lat": "25.2614297", "lon": "55.291668", "addr:city": "Dubai", "addr:street": "Al Nahda (26th) Street", "amenity": "restaurant", "cuisine": "indian", "name": "Hotel Vasantha Bhavan", "name:en": "Hotel Vasantha Bhavan"}
, {"id": "2488214354", "lat": "25.2620429", "lon": "55.2972222", "addr:city": "Dubai", "addr:street": "Al Fahidi (19th) Street", "amenity": "restaurant", "cuisine": "indian", "name": "Puranmal", "name:en": "Puranmal"}
, {"id": "2488215908", "lat": "25.262428", "lon": "55.2970515", "addr:city": "Dubai", "addr:street": "Al Fahidi (19th) Street", "amenity": "restaurant", "cuisine": "juices; pakistani", "name": "Lassi King", "name:en": "Lassi King", "opening_hours": "Sa-Th 08:00-02:00; Fr 16:00-02:00"}
, {"id": "2489871266", "lat": "25.1524975", "lon": "55.226921", "addr:street": "Sheikh Zayed Road", "amenity": "bank", "atm": "yes", "name": "Emirates NBD bank", "name:en": "Emirates NBD", "source": "Kaart Ground Survey 2017"}
, {"id": "2491946713", "lat": "25.149602", "lon": "55.2453803", "amenity": "restaurant", "cuisine": "indian;chinese", "name": "New Wide Range", "name:en": "New Wide Range"}
, {"id": "2493841780", "lat": "25.0274388", "lon": "55.1136112", "addr:city": "\u062f\u0628\u064a", "addr:place:ar": "\u062f\u0628\u064a", "amenity": "place_of_worship", "name": "\u0628\u0646\u0627\u064a\u0629 \u063a\u0631\u062f\u0648\u0627\u0631\u0627 \u0627\u0644\u0645\u0639\u0628\u062f \u0627\u0644\u0633\u0643\u0647 \u0627\u0644\u063a\u0648\u0631\u0648 \u0646\u0627\u0646\u0643 \u062f\u0631\u0628\u0627\u0631", "name:ar": "\u0628\u0646\u0627\u064a\u0629 \u063a\u0631\u062f\u0648\u0627\u0631\u0627 \u0627\u0644\u0645\u0639\u0628\u062f \u0627\u0644\u0633\u0643\u0647 \u0627\u0644\u063a\u0648\u0631\u0648 \u0646\u0627\u0646\u0643 \u062f\u0631\u0628\u0627\u0631", "name:en": "Gurunanak Darbar Sikh Temple Gurudwara Building", "religion": "sikh"}
, {"id": "2496078324", "lat": "25.0988712", "lon": "55.1753009", "amenity": "restaurant", "cuisine": "indian", "name": "New Wide Range", "name:en": "New Wide Range"}
, {"id": "2499040284", "lat": "25.21074", "lon": "55.3115743", "addr:city": "Dubai", "addr:housename": "Oud Mehta Road", "addr:housenumber": "Zaabeel", "addr:postcode": "2666", "addr:street": "2nd Zabeel Road", "amenity": "hospital", "emergency": "no", "name": "Dubai Herbal And Treatment Centre", "name:en": "Dubai Herbal And Treatment Centre", "phone": "0097143351200", "website": "https://www.dubaihtc.com/"}
, {"id": "2501412648", "lat": "25.2724301", "lon": "55.3053922", "amenity": "police", "name": "\u0645\u0631\u0643\u0632 \u0634\u0631\u0637\u0629 \u0646\u0627\u064a\u0641", "name:ar": "\u0645\u0631\u0643\u0632 \u0634\u0631\u0637\u0629 \u0646\u0627\u064a\u0641", "name:en": "Naif Police Station"}
, {"id": "2504113200", "lat": "25.194962", "lon": "55.277181", "addr:city": "Dubai", "amenity": "restaurant", "cuisine": "lebanese", "delivery": "yes", "internet_access": "no", "name": "Souk al Bahar", "name:en": "Souk al Bahar", "outdoor_seating": "yes", "smoking": "outside", "takeaway": "yes", "wheelchair": "yes"}
, {"id": "2505464566", "lat": "25.2503968", "lon": "55.3021205", "amenity": "fast_food", "cuisine": "pizza", "name": "F&S (Falafel & Schwarma)"}
, {"id": "2505464569", "lat": "25.2541907", "lon": "55.3048126", "amenity": "restaurant", "name": "palm jumira", "name:en": "palm jumira"}
, {"id": "2505881851", "lat": "25.133665", "lon": "55.184653", "addr:city": "Dubai", "amenity": "restaurant", "cuisine": "italian", "delivery": "no", "internet_access": "no", "name": "Toscana", "name:en": "Toscana", "note": "In Madinat Souk", "outdoor_seating": "yes", "smoking": "outside", "takeaway": "no", "wheelchair": "limited"}
, {"id": "2511685181", "lat": "25.0692794", "lon": "55.1424005", "addr:city": "Dubai", "addr:housename": "Platinum Tower, Cluster I", "addr:housenumber": "I", "addr:street": "Jumeirah Lakes Towers", "amenity": "university", "name": "Synergy University Dubai", "name:en": "Synergy University Dubai", "operator": "Synergy University"}
, {"id": "2519670876", "lat": "25.2904699", "lon": "55.4538719", "amenity": "school", "name": "Scholars International School", "name:en": "Scholars International School"}
, {"id": "2519670877", "lat": "25.2896807", "lon": "55.4554756", "amenity": "school", "name": "Delta English School", "name:en": "Delta English School"}
, {"id": "2521601395", "lat": "25.1180137", "lon": "55.1989744", "amenity": "restaurant", "name": "Food Court (south)", "name:en": "Food Court (south)", "wheelchair": "yes"}
, {"id": "2521794879", "lat": "25.2526525", "lon": "55.2867221", "addr:street": "Kuwait Street", "amenity": "clinic", "name": "IVF & Women Clinic", "name:en": "IVF & Women Clinic", "source": "Kaart Ground Survey 2017"}
, {"id": "2521830950", "lat": "25.1748642", "lon": "55.2558181", "amenity": "cafe", "name": "Cafe Fiesta Zone", "name:en": "Cafe Fiesta Zone"}
, {"id": "2526037915", "lat": "25.263266", "lon": "55.39188", "addr:street": "Beirut Street", "amenity": "pharmacy", "dispensing": "no", "name": "Aster Pharmacy", "name:en": "Aster Pharmacy", "source": "Kaart Ground Survey 2017"}
, {"id": "2526062367", "lat": "25.2652144", "lon": "55.3896903", "amenity": "post_office", "name": "Post office", "name:en": "Post office"}
, {"id": "2531722511", "lat": "25.2711968", "lon": "55.3764259", "addr:city": "Dubai", "addr:postcode": "47602", "amenity": "clinic", "contact:phone": "04 263 6767", "name": "Joseph Qusais Polyclinic", "name:en": "Joseph Qusais Polyclinic", "opening_hours": "08:30-12:30,16:00-21:30; Fr 8:30-12:00,16:00-21:00"}
, {"id": "2531722512", "lat": "25.271531", "lon": "55.3765196", "amenity": "pharmacy", "dispensing": "no", "name": "Al Naseem Pharmacy", "name:en": "Al Naseem Pharmacy", "phone": "04 263 5277", "source": "Kaart Ground Survey 2017"}
, {"id": "2534788929", "lat": "25.2423775", "lon": "55.3058599", "amenity": "restaurant", "cuisine": "regional_-Soth_India", "name": "Saravana Bhavan", "name:en": "Saravana Bhavan"}
, {"id": "2535696294", "lat": "25.2684731", "lon": "55.297795", "amenity": "marketplace", "name": "ALLRED SAFFRON"}
, {"id": "2536830104", "lat": "25.200689", "lon": "55.274942", "amenity": "atm", "drive_through": "no", "name": "HSBC", "name:en": "HSBC", "operator": "HSBC", "wheelchair": "yes"}
, {"id": "2538016584", "lat": "25.2880813", "lon": "55.3924622", "addr:city": "Dubai", "addr:street": "Damascus street", "amenity": "restaurant", "cuisine": "asian", "name": "Pathan Resturant - Qusais", "name:en": "Pathan Resturant - Qusais"}
, {"id": "2538016586", "lat": "25.2907707", "lon": "55.3930518", "addr:street": "Damascus Road", "addr:suburb": "Industrial Area 1, Al Qusais", "amenity": "car_wash", "name": "EPPCO Car Wash", "name:en": "EPPCO Car Wash"}
, {"id": "2538034365", "lat": "25.2825614", "lon": "55.3877656", "amenity": "bank", "atm": "yes", "name": "Bank Of Baroda", "name:en": "Bank Of Baroda"}
, {"id": "2567664995", "lat": "25.2109895", "lon": "55.276034", "addr:street": "Sheikh Zayed Road", "amenity": "cafe", "brand": "Starbucks", "brand:wikidata": "Q37158", "brand:wikipedia": "en:Starbucks", "cuisine": "coffee_shop", "internet_access": "wlan", "name": "Starbucks", "name:en": "Starbucks Coffee", "official_name": "Starbucks Coffee", "opening_hours": "24/7", "outdoor_seating": "sidewalk", "takeaway": "yes"}
, {"id": "2600959318", "lat": "24.9919385", "lon": "55.0686131", "amenity": "ferry_terminal", "cargo": "Container", "designation": "Terminal 1, Jebel Ali.", "name": "Jebel Ali, Container Terminal 1", "name:ar": "\u0645\u064a\u0646\u0627\u0621 \u062c\u0628\u0644 \u0639\u0644\u064a \u0644\u0644\u062d\u0627\u0648\u064a\u0627\u062a \u0661", "name:en": "Jebel Ali, Container Terminal 1", "wikidata": "Q509588"}
, {"id": "2600959627", "lat": "25.022251", "lon": "55.0618279", "amenity": "ferry_terminal", "cargo": "Container Terminal 2", "designation": "Jebel Ali, Dubai, U.A.E", "name": "Container Terminal 2, Jebel Ali", "name:ar": "\u0645\u064a\u0646\u0627\u0621 \u062c\u0628\u0644 \u0639\u0644\u064a \u0644\u0644\u062d\u0627\u0648\u064a\u0627\u062a \u0662", "name:en": "Container Terminal 2, Jebel Ali", "wikidata": "Q509588"}
, {"id": "2603241163", "lat": "25.0925084", "lon": "55.1704226", "amenity": "fountain", "name": "The Greens Fountain", "name:en": "The Greens Fountain"}
, {"id": "2604691204", "lat": "25.221093", "lon": "55.281036", "addr:city": "Dubai", "addr:street": "Sheikh Zayed Road", "amenity": "fast_food", "brand": "McDonald's", "brand:wikidata": "Q38076", "brand:wikipedia": "en:McDonald's", "contact:email": "crm@mcdonalds-uae.com", "contact:phone": "+971 600 588885", "contact:website": "https://www.mcdelivery.ae/", "cuisine": "burger", "drive_in": "no", "drive_through": "no", "internet_access": "no", "name": "McDonald's", "name:ar": "\u0645\u0627\u0643\u062f\u0648\u0646\u0627\u0644\u062f\u0632", "name:en": "McDonald's", "opening_hours": "24/7", "operator": "EMIRATES FAST FOOD CO.", "takeaway": "yes", "wheelchair": "no"}
, {"id": "2618540918", "lat": "25.0648166", "lon": "55.1560348", "amenity": "school", "name": "Emirates International School - Meadows", "name:en": "EIS - Meadows"}
, {"id": "2622792379", "lat": "25.1695602", "lon": "55.2377264", "amenity": "school", "name": "The English College", "name:en": "The English College"}
, {"id": "2626876581", "lat": "25.2590744", "lon": "55.423209", "addr:city": "Dubai", "amenity": "post_office", "name": "Muhaisnah Post Office", "name:en": "Muhaisnah Post Office", "operator": "EMPOST"}
, {"id": "2626890881", "lat": "25.0102931", "lon": "55.0878277", "addr:city": "Jebel Ali, Dubai", "addr:housename": "Jebel Ali", "amenity": "police", "name": "Jebel Ali Police Station", "name:en": "Jebel Ali Police Station"}
, {"id": "2626995575", "lat": "25.2101918", "lon": "55.2435344", "amenity": "cafe", "name": "Sea More Cafe", "name:en": "Sea More Cafe"}
, {"id": "2627756796", "lat": "25.2321443", "lon": "55.2641364", "addr:city": "Dubai", "addr:street": "Jumeira Street", "addr:suburb": "Jumeirah 1", "amenity": "cafe", "internet_access": "wlan", "name": "The Lime Tree Cafe - Jumeirah 1", "name:en": "The Lime Tree Cafe", "opening_hours": "Mo-Su 7:30-18:00", "operator": "The Lime Tree Cafe & Kitchen", "payment:cash": "yes", "payment:mastercard": "yes", "payment:visa": "yes", "payment:visa_debit": "yes", "phone": "+971 4 349 8498", "website": "https://www.thelimetreecafe.com/"}
, {"id": "2631006551", "lat": "25.1141235", "lon": "55.3808978", "amenity": "cafe", "name": "Costa", "name:en": "Costa"}
, {"id": "2631006553", "lat": "25.1139729", "lon": "55.3806698", "amenity": "atm", "name": "HSBC", "name:en": "HSBC"}
, {"id": "2631007427", "lat": "25.1141016", "lon": "55.3806672", "amenity": "bank", "name": "Orient Exchange", "name:en": "Orient Exchange"}
, {"id": "2632006883", "lat": "25.1134825", "lon": "55.380556", "amenity": "restaurant", "cuisine": "arab", "name": "Al Arrab", "name:en": "Al Arrab", "phone": "+971 4 3264949"}
, {"id": "2632012214", "lat": "25.1130181", "lon": "55.3756768", "amenity": "bank", "name": "RAK Bank Offices", "name:en": "RAK Bank Offices"}
, {"id": "2639079550", "lat": "25.233555", "lon": "55.2788687", "amenity": "restaurant", "name": "Ravi", "name:en": "Ravi"}
, {"id": "2639079551", "lat": "25.2341374", "lon": "55.2810574", "amenity": "restaurant", "name": "Pars", "name:en": "Pars"}
, {"id": "2647468262", "lat": "25.2597863", "lon": "55.3267684", "amenity": "restaurant", "cuisine": "chinese", "name": "China Gate (Hot Pot)", "name:en": "China Gate (Hot Pot)"}
, {"id": "2647468266", "lat": "25.2593784", "lon": "55.3252275", "addr:street": "Al Maktoum Street", "amenity": "restaurant", "cuisine": "chinese", "name": "China Sea", "name:en": "China Sea", "source": "Kaart Ground Survey 2017"}
, {"id": "2649502134", "lat": "25.1295458", "lon": "55.1529364", "amenity": "restaurant", "name": "Crescendo", "wheelchair": "yes"}
, {"id": "2649709920", "lat": "25.1293644", "lon": "55.1524628", "amenity": "bar", "name": "Mai Bar", "wheelchair": "limited"}
, {"id": "2651495613", "lat": "25.1291121", "lon": "55.1538057", "amenity": "restaurant", "name": "Mekong", "wheelchair": "yes"}
, {"id": "2651495615", "lat": "25.1301695", "lon": "55.1535069", "amenity": "restaurant", "name": "Bushman's", "wheelchair": "yes"}
, {"id": "2651508710", "lat": "25.1296615", "lon": "55.1541243", "alt_name": "6621", "amenity": "bicycle_rental", "brand": "nextbike", "brand:wikidata": "Q2351279", "brand:wikipedia": "de:Nextbike", "name": "nextbike", "network": "Byky", "ref_name": "Anantara Resort Station", "website": "http://www.bykystations.com"}
, {"id": "2653117538", "lat": "25.1300313", "lon": "55.151968", "amenity": "restaurant", "name": "The Beach House", "wheelchair": "limited"}
, {"id": "2668126413", "lat": "25.1909114", "lon": "55.2658713", "addr:city": "Dubai", "addr:housename": "Bay Avenue, Executive Towers", "addr:street": "Business Bay", "amenity": "restaurant", "capacity": "50", "cuisine": "pizza;italian;american", "name": "The Pizza Guys", "name:en": "The Pizza Guys", "opening_hours": "11:00-22:30 \"Fr close at 23\"", "payment:bitcoin": "yes"}
, {"id": "2673090275", "lat": "25.0456551", "lon": "55.1329297", "amenity": "post_box", "name": "PO Box, Street 2, Discovery Gardens, Dubai, UAE", "name:en": "PO Box, Street 2, Discovery Gardens, Dubai, UAE"}
, {"id": "2673147426", "lat": "25.049047", "lon": "55.1320666", "amenity": "restaurant", "capacity": "20", "cuisine": "northern_indian", "name": "Mother's Restaurant", "name:en": "Mother's Restaurant", "takeaway": "yes"}
, {"id": "2675215807", "lat": "25.039732", "lon": "55.1416434", "amenity": "post_box", "name": "PO Postal Box Street 6A, Discovery Gardens, Dubai, UAE", "name:en": "PO Postal Box Street 6A, Discovery Gardens, Dubai, UAE"}
, {"id": "2688332738", "lat": "25.0823958", "lon": "55.1425256", "addr:city": "Dubai", "addr:housename": "Park Island Unit", "addr:housenumber": "B&", "addr:postcode": "32923", "addr:street": "Park Island", "amenity": "restaurant", "capacity": "150", "cuisine": "italian", "ele": "10", "name": "Massimo's Italian Restaurant", "name:en": "Massimo's Italian Restaurant", "phone": "+971 4 432 4284", "source": "http://www.tripadvisor.com/Restaurant_Review-g295424-d4455905-Reviews-Massimo_s_Italian_Restaurant-Dubai_Emirate_of_Dubai.html", "website": "http://www.facebook.com/MassimosItalianRestaurant?ref=hl"}
, {"id": "2690813035", "lat": "25.2347853", "lon": "55.4364185", "addr:city": "Dubai", "addr:housenumber": "shop no1540", "addr:postcode": "444786", "addr:street": "Al Khawaneej Road", "amenity": "hospital", "emergency": "yes", "name": "Smilecare Medical Center LLC 042855066", "name:en": "Smilecare Medical Center LLC 042855066", "note": "Dentist, implant, cosmetic, root canal, braces,orthodontist, European qualified", "phone": "042855066", "website": "www.smilecaredubai.com", "wheelchair": "yes"}
, {"id": "2694685117", "lat": "25.0725738", "lon": "55.1370268", "amenity": "restaurant", "name": "Better Grill", "name:en": "Better Grill"}
, {"id": "2694685118", "lat": "25.0740509", "lon": "55.1368524", "amenity": "restaurant", "name": "Sarpino's", "name:en": "Sarpino's"}
, {"id": "2694685119", "lat": "25.0751344", "lon": "55.1377001", "amenity": "restaurant", "name": "Pepper & Crab", "outdoor_seating": "yes"}
, {"id": "2694685120", "lat": "25.0754624", "lon": "55.1382257", "amenity": "restaurant", "name": "La Gaufrette", "name:en": "La Gaufrette"}
, {"id": "2694685121", "lat": "25.0754915", "lon": "55.1384376", "amenity": "restaurant", "name": "Bazerkan", "name:en": "Bazerkan"}
, {"id": "2694685122", "lat": "25.0752608", "lon": "55.1378181", "amenity": "restaurant", "cuisine": "mexican", "name": "Loca", "outdoor_seating": "yes"}
, {"id": "2712775153", "lat": "25.0855127", "lon": "55.1438855", "amenity": "hospital", "designation": "Cosmetic Clinic & Dental Clinic", "emergency": "yes", "name": "Health Avenue Polyclinics", "name:en": "Health Avenue Polyclinics", "source": "owner"}
, {"id": "2712984281", "lat": "25.2831061", "lon": "55.3893582", "addr:housename": "Dubai Residential Oasis", "addr:housenumber": "25", "addr:street": "Damascus street", "amenity": "bank", "atm": "yes", "name": "RAK Bank"}
, {"id": "2719215767", "lat": "25.085336", "lon": "55.1417994", "amenity": "hospital", "healthcare": "hospital", "name": "\u0645\u0633\u062a\u0634\u0641\u0649 \u0627\u0644\u0625\u0645\u0627\u0631\u0627\u062a", "name:ar": "\u0645\u0633\u062a\u0634\u0641\u0649 \u0627\u0644\u0625\u0645\u0627\u0631\u0627\u062a", "name:de": "Emirates Hospital", "name:en": "Emirates Hospital", "phone": "+971 4 447 1777", "website": "https://www.emirateshospital.ae/"}
, {"id": "2778451858", "lat": "25.0858232", "lon": "55.143073", "amenity": "bar", "name": "Embassy", "name:en": "Embassy", "opening_hours": "20:00-02:00", "phone": "043176000", "website": "http://www.embassy-dubai.com/"}
, {"id": "2784775417", "lat": "25.1566776", "lon": "55.2161419", "addr:city": "Dubai", "addr:housenumber": "116", "addr:street": "34d St", "amenity": "kindergarten", "contact:email": "info@aspinnursery.com", "contact:phone": "052-978-5864", "contact:website": "http://www.aspinnursery.com", "name": "Aspin Nursery", "name:en": "Aspin Nursery"}
, {"id": "2805143843", "lat": "25.0762517", "lon": "55.1460689", "amenity": "restaurant", "cuisine": "Bakery", "name": "Mister Baker", "name:en": "Mister Baker"}
, {"id": "2805143844", "lat": "25.0747867", "lon": "55.1452764", "amenity": "restaurant", "cuisine": "Bakery", "name": "Mister Baker", "name:en": "Mister Baker", "opening_hours": "07:00-12:00", "phone": "+9714-4329801", "smoking": "no", "website": "http://www.misterbaker.com/branches.php#dubai"}
, {"id": "2805359250", "lat": "25.2705995", "lon": "55.3219847", "amenity": "hospital", "emergency": "no", "fixme": "name, name:en mismatch.", "name": "Prime Medical Centre", "name:en": "Prime Health centre Ekka's office"}
, {"id": "2817159292", "lat": "25.2725327", "lon": "55.3713511", "amenity": "bureau_de_change", "name": "UAE Exchange", "name:ar": "\u0645\u0631\u0643\u0632 \u0627\u0644\u0625\u0645\u0627\u0631\u0627\u062a \u0627\u0644\u0639\u0631\u0628\u064a\u0629 \u0627\u0644\u0645\u062a\u062d\u062f\u0629 \u0644\u0644\u0635\u0631\u0627\u0641\u0629", "name:en": "UAE Exchange"}
, {"id": "2826053001", "lat": "25.077846", "lon": "55.133147", "amenity": "toilets", "name": "Toilet", "name:en": "Toilet", "operator": "Muncipal", "source": "Site survey"}
, {"id": "2826063301", "lat": "25.0781907", "lon": "55.133509", "amenity": "cinema", "name": "Reel Cinema - The Beach", "name:en": "Reel Cinema - The Beach", "operator": "Reel", "source": "Site survey"}
, {"id": "2826063302", "lat": "25.077493", "lon": "55.133826", "amenity": "restaurant", "cuisine": "indian", "name": "Sukh Sagar", "name:en": "Sukh Sagar", "outdoor_seating": "yes", "source": "Site survey"}
, {"id": "2826168101", "lat": "25.078359", "lon": "55.1334016", "amenity": "restaurant", "name": "The Beach", "name:en": "The Beach", "outdoor_seating": "yes"}
, {"id": "2826526401", "lat": "25.0765369", "lon": "55.1312", "amenity": "restaurant", "cuisine": "lebanese", "name": "Awani", "name:en": "Awani", "outdoor_seating": "yes", "source": "Site survey", "wheelchair": "yes"}
, {"id": "2826531201", "lat": "25.076698", "lon": "55.131308", "amenity": "restaurant", "name": "La Pasteria", "name:en": "La Pasteria", "outdoor_seating": "yes", "wheelchair": "yes"}
, {"id": "2826535601", "lat": "25.076712", "lon": "55.131391", "amenity": "restaurant", "cuisine": "mediterranean", "name": "Bahria", "name:en": "Bahria", "source": "Site survey"}
, {"id": "2826539801", "lat": "25.077087", "lon": "55.13168", "amenity": "restaurant", "brand": "Shale Shack", "name": "Shake Shack", "name:en": "Shake Shack", "opening_hours": "Mo-Sa 11:00-02:00; Su 11:00-00:00", "source": "Site survey", "wheelchair": "yes"}
, {"id": "2826543601", "lat": "25.077456", "lon": "55.131938", "amenity": "restaurant", "cuisine": "italian;pizza", "name": "pizzaioli emigranti", "name:en": "pizzaioli emigranti", "outdoor_seating": "yes", "source": "Site survey"}
, {"id": "2826551601", "lat": "25.077566", "lon": "55.132256", "amenity": "restaurant", "name": "House of Curry", "name:en": "House of Curry", "outdoor_seating": "yes", "smoking": "outside", "source": "Site survey", "wheelchair": "limited"}
, {"id": "2826563801", "lat": "25.0769088", "lon": "55.1324907", "amenity": "ice_cream", "name": "Merelli's", "name:en": "Merelli's", "outdoor_seating": "yes", "source": "Site survey", "takeaway": "yes"}
, {"id": "2826563802", "lat": "25.0768101", "lon": "55.133233", "addr:street": "Al Mamsha Street", "amenity": "cafe", "internet_access": "wlan", "name": "Starbucks", "name:en": "Starbucks", "smoking": "no", "source": "Site survey", "takeaway": "yes"}
, {"id": "2826566401", "lat": "25.0763126", "lon": "55.1319592", "addr:street": "Al Mamsha Street", "amenity": "fast_food", "name": "Operation Falafel", "name:en": "Operation Falafel", "outdoor_seating": "yes", "source": "Site survey", "takeaway": "yes"}
, {"id": "2826568401", "lat": "25.0766967", "lon": "55.1322539", "amenity": "toilets", "name": "Toilets", "name:en": "Toilets", "operator": "Muncipality", "source": "Site survey", "wheelchair": "limited"}
, {"id": "2826597001", "lat": "25.076345", "lon": "55.1319133", "amenity": "cafe", "name": "Pappa Rotti", "name:en": "Pappa Rotti", "source": "Site survey"}
, {"id": "2826602501", "lat": "25.0764532", "lon": "55.1315777", "amenity": "restaurant", "cuisine": "international", "name": "La Pastreria", "name:en": "La Pastreria", "source": "Site survey"}
, {"id": "2826617301", "lat": "25.076492", "lon": "55.132702", "amenity": "restaurant", "cuisine": "turkish", "name": "k\u00f6sebasi", "outdoor_seating": "yes", "smoking": "separated"}
, {"id": "2826623801", "lat": "25.076785", "lon": "55.132971", "amenity": "restaurant", "cuisine": "italian", "name": "La Dolce Vota", "name:en": "La Dolce Vota", "outdoor_seating": "yes", "smoking": "separated", "source": "Site survey"}
